Name,lat,lon
Ihr Koch on Tour,52.45481,13.59031
Pizzawerkköpenick,52.45481,13.59031
Pizzawerk,52.45481,13.59031
Veracruz,52.45268,13.59594
Marina Sol,52.44842,13.61015
Windrose,52.44842,13.61015
Pier 44,52.44606,13.58552
Taj Mahal Haus Köpenick,52.44759,13.59188
Tasty Waffle,52.46229,13.58212
Café Hdjk,52.45521,13.58288
TSV Eiche Köpenick,52.44857,13.59291
Aao Ji,52.44759,13.59188
El Loco,52.44732,13.57702
Gaststatte Vereinsheim Erpetal,52.460007,13.611314
Domino's Pizza,52.45415,13.57784
Hippokrates,52.45991,13.58036
Burgerburo,52.45736,13.57798
Mykonos,52.44434,13.58531
Viet Duc,52.45302,13.57486
Tandoori Mahal,52.4441,13.57957
Nordsee,52.45846,13.57895
Cafeteria im Krankenhaus Köpenick,52.44002,13.59428
Amtsfeld,52.4413,13.58743
Waschhaus Alt-Köpenick,52.4459,13.5795
Mia Mambo Döner,52.44475,13.58639
Isaja,52.45686,13.58085
Hauptmann von Koepenick,52.45919,13.58025
Chartina Lokal,52.43976,13.59405
Bistro 2000-Cafe,52.44364,13.58396
Restaurant Sandmann,52.45676,13.58098
Kinzer Krug,52.45473,13.57666
Rodos,52.458248,13.578168
Lehmofen,52.44748,13.57816
Pizza Pasta,52.45846,13.57895
Tinh Co,52.45473,13.57666
Segafredo Espresso-Bar,52.45846,13.57895
Kombüse,52.44732,13.57702
Dehning Heideschlachter,52.458119,13.578409
Peps Kaffee,52.44692,13.57617
El Tinto,52.44692,13.57617
Sapori di Sicilia,52.44756,13.57878
China Bistro Thang Long,52.457882,13.576605
Presto,52.45579,13.5784
Milchkaffee,52.44614,13.57639
Eat Me!,52.458044,13.578523
Bistro Bonjour,52.458552,13.576368
Faltin's Biergarten,52.462,13.57761
Shene Huo,52.44646,13.57803
Center Grill,52.45846,13.57895
Restaurantschiff 'Ars Vivendi',52.44757,13.57687
Die Feinschmecker,52.4569,13.5782
Aao Ji,52.44781,13.57559
Döner Box Köpenick,52.4573,13.57851
Asia Snack,52.45846,13.57895
Hausmannskost Köpenick,52.44041,13.60144
Mangococktailbar,52.44459,13.58596
Pizza Piccolo,52.44735,13.57632
Deftig,52.45574,13.58075
Mr. Kebap,52.45811,13.57989
Asia-Thai Bistro,52.44129,13.58795
Sonnenkind,52.44588,13.57787
Hotel-Pension Mendau,52.45616,13.61154
Yammas,52.45717,13.57787
Ventelino Focacceria,52.45425,13.57621
Kebaphaus 49,52.45538,13.57661
Pizzeria Castello,52.45579,13.5784
Mexico City,52.45846,13.57895
Brinki´S Brutzel Bude,52.44757,13.57687
Pizzaplanet,52.44459,13.58596
Mone's Kleiner Treffpunkt,52.54482,13.24615
Asia Snack,52.54301,13.24074
SUBWAY,52.53982,13.2501
Bootshaus Haselhorst,52.55072,13.23625
Mila Bistro Asia Cuisine,52.54243,13.2386
Ital Snack,52.54259,13.23921
Costa Rica,52.54169,13.23889
Restaurant Vitello,52.54169,13.23889
Kantine im Finanzamt Spandau,52.53839,13.23737
Mali Raj,52.54187,13.23665
Wirtshaus Heimatliebe,52.55072,13.23625
Milano Restaurant Pizza,52.54319,13.23906
Ha Noi Pho,52.53838,13.24865
BURGER KING,52.53994,13.2486
Hoi an,52.53859,13.24809
Lemongras,52.54243,13.2386
Die Ecke,52.54321,13.24039
Metro Deutschland,52.53978,13.24533
Delizie da Vito,52.53695,13.26704
Siemensstuben,52.53771,13.26618
Argentinisches Steakhaus Nonnendamm,52.53697,13.26614
Maximilian,52.53769,13.22884
Schlemmerparadies,52.53769,13.22884
Restaurant Stammhaus,52.53609,13.2655
Berliner Rouladenhaus,52.53643,13.26769
Ile de Bali,52.53705,13.26641
Da Vito,52.53705,13.26641
Rödi Pizza-Pasta-Döner,52.5399,13.23181
Nobbis Feine Suppen,52.53761,13.26467
Royal Asia,52.53705,13.26641
Pier36eins,52.41727,13.58164
Don Giovanni,52.42796,13.5817
Maxes Veranstaltungslokal Cöpenick,52.43325,13.59566
Cafe Liebig,52.41528,13.58204
Hafenbaude,52.41859,13.58719
Asia Park,52.4351,13.59605
Köpenicker Currywurst Ug (Haftungsbeschränkt),52.42869,13.57885
Wendenschloss,52.4149,13.59053
Seidenmatt,52.41892,13.57945
Pizzeria Dorado,52.42478,13.57476
Pizzeria Cucina,52.42483,13.57513
Restaurant Klabautermann,52.4147,13.58877
Restaurant Ambassador-Berlin-Grünau,52.41823,13.58037
China-Haus im Wendenschloß,52.41483,13.59562
Antalya Grill,52.41766,13.58009
Pahl,52.41823,13.58037
Teterra und Trompke Gb,52.56666,13.19323
Sutos,52.56866,13.20245
Restaurant Kastaniengarten,52.56769,13.19244
Hähnchenprinz,52.57578,13.21318
Lasila,52.56205,13.20884
Curry 55,52.56217,13.20833
Conny's Eiscafe,52.57372,13.21641
China Restaurant Swang Lung,52.56233,13.20836
Das Berliner Frühstück,52.45551,13.5033
Taverna Odyssee,52.44803,13.50792
Narli,52.45642,13.50922
Sushi and Friends,52.44806,13.50767
El Ganado,52.44732,13.50728
Taj Mahal India,52.45655,13.51051
Tandoor House,52.45649,13.51118
KFC,52.46082,13.50299
Il Nuovo Berlin,52.46248,13.48302
Il Monello,52.45291,13.51013
Asiagourmet,52.45642,13.50922
Grill Profi,52.45068,13.50843
Balla Balla,52.45639,13.5115
Beef Burger,52.44608,13.5064
Stern Bistro,52.45352,13.50955
Südtiroler Stübl,52.45126,13.48793
Sonnen-Café,52.45261,13.50958
Spezialcafé,52.45772,13.51146
Funa Sushi,52.4575,13.51079
Mac's Bistro,52.445269,13.504441
Original Ketwurst,52.45642,13.50922
Eiskönigin,52.45642,13.50922
Falafel Nr. 1,52.45642,13.50922
Pinoli Cafe-Restaurant,52.44913,13.51264
BURGER KING,52.45257,13.51483
Siena,52.45426,13.51764
Staatsburger,52.46329,13.51368
Feuerwache-Malanders,52.46474,13.51214
Kobani Bistro,52.45447,13.51627
Spreeterrasse - Ehemals Spreeerbse,52.46227,13.51199
Bill Yard Fabrik,52.46338,13.50897
Takeaway the Loop,52.46148,13.51746
The Double Inn - Irish & Scottish Pub,52.46227,13.51199
Serrano,52.45348,13.51805
Lenders,52.4443,13.50582
Pizza Chero,52.45473,13.51634
Sonnendeck,52.46217,13.51373
Haniz-Duy,52.46274,13.51379
Pizza Hof,52.46241,13.51474
Don Giovanni,52.44271,13.50643
Iceblockers,52.46787,13.50354
El Buen Gusto,52.46425,13.48854
Asia Haus & Sushi Bar,52.46112,13.48137
Ristorante Eiscafe Alberto,52.46624,13.4897
Hofcafe Spaeth,52.45428,13.47322
Cafe Behring,52.46661,13.48975
Wirtshaus Heide am Wasser,52.443737,13.484369
Café 74,52.46368,13.48447
Asia Wok,52.46463,13.48623
Eiskultur Berlin,52.4551,13.51484
Bistro Narli,52.46395,13.49838
Leckerburger,52.461527,13.517207
Hoa Lan,52.4653,13.48704
Zamzam,52.45621,13.51947
Pointoo Mexikanische Spezialitäten,52.444935,13.481515
Petersen Restaurant und Cafe,52.46425,13.48854
Ristorante Romantica,52.46463,13.51304
Pizzeria Isobella,52.46544,13.48662
Curry-Weide,52.4625,13.51451
Tokyo For You,52.46274,13.51379
Bep Viet,52.46274,13.51379
Döner Billiard,52.46265,13.51368
Pizzeria Dilara,52.46567,13.48749
Stevens Bierpub,52.46217,13.51373
Glücksstern,52.46241,13.51474
Anima E Curore,52.4588,13.51248
Cafe Diadem,52.60926,13.20013
Athos,52.60774,13.19831
Zum Blockhaus,52.60439,13.19756
Die Buhne,52.60948,13.20041
Restaurant Haus Dannenberg,52.6081,13.21187
Trattoria Giardini del Villaggio,52.60736,13.21085
Dorfaue,52.60736,13.21085
Straßenbahndepot,52.60588,13.21233
Roma Ristorante Pizzeria,52.61306,13.21763
Ristorante Toscanini,52.61498,13.20157
Seebad Heiligensee,52.60011,13.2131
Onkel Toms Burger,52.45028,13.25293
Mai.88 Vietnamese Kitchen,52.45022,13.2543
Cafe Rodelhutte,52.45556,13.25051
Capriole,52.4543,13.2493
Messã³Jios,52.45012,13.25507
Mediterraneo,52.44786,13.25193
Gourmet Sud,52.44579,13.24285
Wu's China Restaurant,52.4467,13.24322
Golden Goal,52.44528,13.25276
Breadleys,52.44985,13.26965
Restaurant Spalato,52.4409,13.24287
Waldhaus,52.44408,13.25389
Vietnams Restaurant,52.45215,13.27077
Z88- Gastro,52.44205,13.25132
Milch und Honig,52.44452,13.26131
Nuovo Paladino,52.44111,13.2439
Lindner,52.44246,13.24128
Imbiss am Oskar-Helene-Heim,52.44985,13.26965
Ha-Chi,52.45179,13.26989
Goodtime,52.51235,13.39734
Augustiner am Gendarmenmarkt,52.51373,13.39108
Rotisserie Weingrün,52.512729,13.403026
Fischers Fritz,52.51515,13.39085
La Banca Bar,52.51583,13.3941
Braufactum am Hausvogteiplatz,52.51336,13.39611
Borchardt,52.51497,13.39041
Jedermann's,52.51739,13.39015
SUBWAY,52.51586,13.39021
Austernbank,52.51594,13.39161
Restaurant Beletage,52.51199,13.391876
The Coffee Shop,52.513,13.39735
Maredo Steakhouse - Berlin Gendarmenmarkt,52.51286,13.3911
Roter Jaeger,52.51404,13.39586
Erdinger am Gendarmenmarkt,52.51426,13.39358
Chipps,52.51439,13.39755
Cha Cha,52.51172,13.38986
Otito,52.51017,13.39052
Brasserie am Gendarmenmarkt,52.51341,13.39408
Thu My Marie Restaurant,52.51316,13.39443
The Coffee Shop,52.51537,13.39852
Seaside,52.51198,13.38998
Newton Bar,52.51341,13.39113
Lavida Wine Club,52.51316,13.39443
Sagrantino,52.51586,13.39021
The Digital Eatery,52.51681,13.39048
Pasta Monopoly,52.51144,13.39096
Dom Curry,52.51217,13.39282
Ma'Loa Hawaiian Poké Bowl,52.51348,13.39699
Mabuhay Mini,52.51144,13.39096
Nanoosh,52.5123,13.39027
Auf die Hand - Feinstes Fastfood Friedrichstrasse,52.51198,13.38998
Chupenga Burritos & Salads,52.51251,13.39448
Leysieffer,52.51241,13.39046
Lutter und Wegner,52.51341,13.39113
Domcafe im Berliner Dom,52.51899,13.40068
Freundschaft,52.51826,13.39031
Cafeteria Hfm Neuer Marstall,52.51659,13.40345
The Rooftop Terrace,52.51583,13.3941
Julian & Elisa,52.51484,13.39335
Mensa Süd,52.51762,13.39376
Gerdarmerie,52.51594,13.39161
Naveena Path,52.51826,13.39031
Bonjour Vietnam,52.51636,13.38993
Die Maultasche,52.51614,13.39101
Restauration Stadtbahnbögen,52.51497,13.39041
Le Populaire,52.51697,13.39615
Chiaro,52.515828,13.3941
World of TUI,52.5154,13.39276
Kofler & Kompanie Newco,52.51772,13.39704
Vietnam Restaurant,52.51739,13.39015
Little Green Rabbit - unter den Linden,52.51677,13.38987
Foreign Affairs,52.51524,13.3977
Cafe-Restaurant Berlin/Mitte,52.51134,13.3982
Bless Restaurant,52.51245,13.39679
ATRIUM CAFE,52.51473,13.39075
Büro,52.51017,13.39016
Bistro am Gendarmenmarkt,52.51484,13.39335
Ur-Saalfelder,52.51115,13.39518
Saigon Café & Bar,52.51071,13.39994
Random Sushi Restaurant in Berlin,52.51118,13.39129
China City,52.51057,13.39734
Berlin Coffee,52.51202,13.39039
Cafe Konzerthaus am Gendarmenmarkt,52.51388,13.391851
Cadadia,52.51152,13.39144
Löwen-Team,52.51426,13.39358
Sons of Mana X Royals & Rice,52.51238,13.39002
Quchnia,52.51281,13.3936
Little Green Rabbit - Gendarmenmarkt,52.51398,13.3956
Sapa Sushi,52.51152,13.39144
Spätzle Club,52.51055,13.40242
Vietnamese Garkuche,52.510374,13.390133
Bistro Vital,52.51142,13.3972
Spiekermann Erik,52.51258,13.39906
Refugium,52.5143,13.39221
Lafayette Bistro,52.51405,13.38995
L&D GNNH & Conkg KG I'm Restaurant des Icaa in Berlin,52.51313,13.39992
Fontana di Trevi,52.51134,13.3982
Frittenwerk Berlin Friedrichstrasse,52.51282,13.39039
Berlin Capital Club,52.51217,13.39282
Französischer Hof,52.51426,13.39358
Chocolaterie Manon,52.51405,13.38995
Blbg,52.51166,13.3914
Mosaik-Kantine Konzerthaus,52.51322,13.39107
Cafe am Petriplatz,52.51294,13.40318
Malatesta,52.51246,13.39117
Noumi,52.51439,13.39755
Mare E Monti,52.51844,13.3903
Beefbar,52.51245,13.39679
Los Angeles Cold Press,52.51405,13.38995
Quadriga Forum,52.51517,13.39737
Einstein,52.51824,13.40087
The Sushi Club,52.51251,13.39448
Lunchtime,52.5143,13.39725
Mensa Hochschule für Musik Charlottenstraße,52.51373,13.39108
Speisen & Getränke,52.51134,13.3982
Neuhaus,52.51198,13.38998
"Katz Orange, Bergstraße 22, Berlin",52.511316,13.400988
Lemke,52.523252,13.404735
Brauhaus Georgbraeu,52.51656,13.40519
Restaurant Wiesenblick,52.54593,13.49407
Arjun,52.54824,13.50084
Call A Pizza,52.54408,13.49289
Seco Kiez-Kneipe,52.5447,13.49437
K3 Lounge,52.5487,13.50097
Konrad Grill,52.54431,13.49252
Kaffee Strudel,52.54408,13.49289
Asia Bistro Storchenhof,52.54829,13.50347
Fantasia,52.54868,13.50276
Garage,52.54593,13.49407
Kittchen Imbiss,52.54232,13.49932
Nelke Feinkost Restaurant,52.54765,13.50325
Take Off Bierbar,52.54223,13.48933
Pizza Max,52.54296,13.49075
Commerzbank AG Filiale,52.54254,13.48994
Silverado Steakhaus,52.54308,13.49011
La Pica de Deli Mel,52.54204,13.49922
Le Marrakesh,52.54737,13.49995
Trattoria Aversa,52.54385,13.49982
Pietschmanns,52.54372,13.49219
Konrad Imbis,52.54731,13.49931
Döner Treff,52.54829,13.50347
Eiscafe Heidi,52.54372,13.49219
Orankesee Terassen,52.5471,13.48227
Zapfhahn 88,52.53997,13.48501
Lausbub,52.53877,13.49244
Coffee Station,52.53986,13.4848
Die Burgerhelden,52.54177,13.48846
Dasclubhaus,52.54456,13.48598
Bar im Wasserturm,52.54767,13.4887
Firma Veit Kabiersch,52.55177,13.48785
Hong Phuc - Restaurant,52.53573,13.49746
Eleganz Imbiss,52.54855,13.50572
Sushi For You,52.54191,13.48873
Aquarium-Cafe,52.55177,13.48785
Musikcafe,52.53762,13.49607
Allee Bistro,52.535039,13.497049
Restaurant und Eiscafe Gessert,52.5558,13.5023
Kochmutze,52.53382,13.503571
Cocomo,52.550861,13.512895
Long Food,52.53471,13.49595
Steakhouse Asino,52.53765,13.47886
Restaurant Aphrodite,52.53812,13.48019
Gourmet Grill,52.55627,13.48704
Restaurant Olympia,52.55379,13.50281
Wellis Sportsbar & Restaurant,52.54115,13.48121
My Keng,52.55887,13.49793
Suppe und Stulle Berlin,52.53839,13.48095
Mones Bistro,52.54575,13.51604
Menüpartner,52.54322,13.51571
Taverna Elena,52.51497,13.30269
Cedre Blanc,52.51734,13.29391
Hoffgarten,52.51672,13.29696
Chenab,52.51312,13.29158
Gasthaus Kater Alex,52.51178,13.30116
Chateau9 - Berlin,52.51114,13.30365
Gimme Gelato,52.51205,13.29411
Danis Pizza,52.51191,13.29424
Sole D'Oro Cucina Italiana,52.51495,13.30497
XL Doener,52.51202,13.29684
2 Friends,52.51545,13.30491
Pizzeria Piccobello,52.51201,13.29752
Cafe sem,52.51649,13.30038
Don Camillo,52.5167,13.29578
Weiß-Blau,52.51307,13.29083
Hängemate,52.51596,13.30448
Galija,52.51878,13.30143
Puttoberlin,52.51672,13.29696
Milchbubies,52.5157,13.30435
Genki-Sushi,52.51457,13.30464
Le Piaf,52.51672,13.29696
Glaube Liebe Hoffnung,52.51767,13.29386
Putto,52.51672,13.29696
New Asia Food,52.51658,13.29099
Pizzeria Chero,52.51575,13.30451
Eisfabrik Alan 2,52.51737,13.30339
Trattoria fra Diavoli,52.51787,13.29317
Eis Fedora Cafe,52.51485,13.29441
Die Eselin von a.,52.51709,13.29691
Co Miu,52.51553,13.29152
Karagiosis,52.51836,13.29273
Goldesel,52.51547,13.29509
Aba Kebap,52.51496,13.29063
12 Oz,52.51133,13.29781
Amoag Sudaniesch Spezialitaeten,52.51458,13.30502
Tembo African Restaurant and Bar,52.51372,13.29087
Tex Mex,52.51068,13.30134
Da Peppino,52.51162,13.29349
Dio's Musik-Café,52.51006,13.30467
Chapeau Brasserie,52.51095,13.29295
Do Long,52.5133,13.30474
Bärliner Tapasserie,52.51118,13.29134
Soffi,52.51163,13.29758
Restaurant Lateo,52.51064,13.29813
Me Restaurant,52.51317,13.29242
Ming Jia,52.51201,13.29752
Wodessa Lounge,52.51042,13.29258
Can Cafe,52.51163,13.29758
Dasomi,52.51317,13.29242
Berlin Bistro Pomelo Tree,52.51015,13.29769
Alles Gut,52.51191,13.29424
Ess Haltestelle,52.51118,13.29134
Bey Simit Haus,52.51129,13.29832
Jikos Burger,52.51191,13.29424
Asude,52.51133,13.29895
Trattoria Fortuna,52.51101,13.29384
Birgit's Pub,52.51202,13.29953
Am Nil Restaurant,52.51051,13.29411
Rocco,52.51055,13.2949
Marmotte,52.51253,13.29394
Hofbrau Munchen,52.51222,13.30486
Gusto Giusto,52.51042,13.29258
Esstaurant Mirko,52.51014,13.2983
Trattoria Toscana,52.51416,13.29739
Pizza Napoli,52.51257,13.30482
Al-Mundo,52.5119,13.29492
Restaurant & Weinbar Glügk,52.51101,13.29384
Frühstück & Co,52.51184,13.30175
Kien-du,52.51455,13.3013
Café Kunst Genuß,52.51219,13.29993
Chennai,52.51312,13.29158
Croissanterie- Bistro und Eis,52.51133,13.29781
Jojo,52.51191,13.29424
Kantine im Finanzamt Charlottenburg,52.51165,13.30365
Dicker Wirt,52.51377,13.29123
Steinofen Pizza Pasta,52.51257,13.30482
Pinoy Philippinische Spezialitaten,52.51484,13.29103
Com Sushi,52.51317,13.29242
Trattoria la Bella Sicilia,52.51307,13.29083
Da Antonio,52.51145,13.30067
Trattoria Nardino,52.51305,13.30438
Van May,52.51218,13.29749
Chu Ky,52.51554,13.29161
Manhattan Burger,52.51304,13.29734
Prema,52.51255,13.29461
La Strada,52.51079,13.2985
Cafe Morgenlicht,52.51581,13.29593
Clara Vere,52.51303,13.30416
Figaro Wine & Food,52.51218,13.29749
Zur Mieze Katzenmusik Cafe,52.51598,13.30485
Falafel,52.51257,13.30482
Castello,52.51163,13.29758
Röstwerk Kaffeerösterei,52.51556,13.29199
Sushi & Vietnam Kitchen,52.5133,13.30474
Thuy Tien Sushi Bar,52.51769,13.29098
Restaurant Kriti,52.51333,13.29081
Laisla Cafe&Restaurant,52.51458,13.30502
Asia-Sushi Time,52.51769,13.29098
Berliner Eismanufaktur,52.51551,13.29116
Salumeria Tommaso,52.51596,13.30448
Dittmanns Drogerie,52.40302,13.58579
Hanffs Ruh,52.4078,13.59907
Griechische Spezialitäten,52.39568,13.57372
Duo Restaurant,52.45096,13.34087
Mamma Rosa,52.45039,13.34214
Restaurant Zagreb,52.45001,13.34533
Magna Coffee Store,52.45085,13.34179
Chandi Restaurant,52.44785,13.34024
Groschen-Keller,52.46221,13.33897
Ristoro Padre Pio,52.45901,13.34272
Krasselt's Imbiss,52.4507,13.33958
Vodafone Aramark Kantine,52.44763,13.36201
Bistro Imbiss Ossowski,52.44712,13.36127
Cafe Pascha,52.44846,13.35689
China Restaurant Sichuan,52.45224,13.3339
Ottmar Bonner & Petra Hilse,52.46221,13.33897
Kebap House,52.45083,13.33849
Emona,52.45887,13.33976
Parthenon,52.45145,13.33583
Restaurant Kadena,52.45887,13.33976
Big Drei China Restaurant,52.44766,13.34138
Unser Kebap,52.44714,13.34162
Café Burda’S,52.4493,13.33865
Eiscafe & Bubble Tea Bar Kunterbunt,52.45138,13.33648
Restaurant am Rosengarten,52.448885,13.338594
Buon Café S,52.46276,13.33478
Chopsticks,52.45668,13.33881
Eiscafe Lido,52.46293,13.33875
La Ronda,52.44911,13.35243
Canova Berlin,52.463,13.34444
Merci Backshop,52.46276,13.33478
Eis Hennig,52.45098,13.33913
Piadina Mia,52.44722,13.34225
Kimchi Heim,52.4496,13.34854
Xochimilco,52.45113,13.33944
Spalato,52.4598,13.33974
Gemüse Kebab Eat&Go,52.46208,13.33875
Restaurant Tiamo,52.44661,13.34342
Elias Gyrosland,52.45145,13.33863
Tonys Pizzeria & Ristorante,52.44722,13.34225
Dalmata,52.44785,13.34024
Zaka Sushi,52.45304,13.33827
Simon's Kneipe,52.44619,13.34452
Mare E Monti,52.46335,13.33878
Snack Baalbeck,52.44714,13.34162
Burger Bar 17,52.45138,13.33648
Good Friends,52.45903,13.33575
Maremonte,52.46335,13.33878
Osteria Maria,52.45324,13.32453
Henrys,52.46415,13.33093
Bab & Kimchi,52.46407,13.33113
Finnegan's Irish Pub,52.45797,13.32925
Call A Pizza,52.46686,13.3425
Call A Pizza,52.4461,13.32911
Don Gelato,52.46369,13.33229
Udagawa,52.46332,13.32992
Mai Phai,52.46316,13.32883
Trattoria Tropea,52.45963,13.36361
Comy,52.461893,13.367418
Pasta Focaccia,52.46369,13.33229
Madonna del Castello,52.45532,13.32493
Kümes Chickenhouse,52.45572,13.32383
Pizza Max Steglitz,52.45197,13.33006
Restaurant le Canard,52.45265,13.33049
Berlinchen,52.46691,13.34394
Feuerbach Spiel Berlin,52.46369,13.33229
Saiko Sushi,52.45128,13.32997
Weinbasis Weinbar & Weinhandel,52.45501,13.32455
Bergamotto,52.46694,13.34302
Golden Tea Garden,52.44002,13.3427
Jing Yang,52.45596,13.32468
Zum Borstel,52.44675,13.32784
Miséria & Nobilta,52.46702,13.33871
Pizzeria la Mama,52.45536,13.32616
Gyros Grill,52.46369,13.33229
Manhattan Pizza,52.45485,13.32744
Frohsinn,52.46438,13.34283
Cafe-Kneipe Sedan,52.44557,13.33043
La Marianna,52.46463,13.33863
Cafe Xerima,52.45982,13.32579
Thai Food Sushi Bar,52.45463,13.32799
Kultur Café,52.46632,13.33442
Bei Maria,52.44142,13.35357
Croque Berlin,52.44002,13.3427
Asia-Fast-Food,52.45803,13.32432
Annagrazia,52.46422,13.33864
La Parrilla,52.45546,13.32508
Dalmacija,52.46288,13.32804
Italian Ristorante 41 Quarantuno,52.46702,13.33871
La Casserole,52.4551,13.32511
King do,52.44002,13.3427
Pigasos,52.46671,13.33894
Coreana,52.45593,13.32401
Dottir,52.45509,13.32376
Cafe Lotte Jakob,52.46812,13.34234
Trattoria da Pizzo,52.45963,13.36361
Il Pavone,52.44168,13.35395
Die Kaffeenauten,52.4549,13.32441
Licht des Sudens,52.46729,13.34245
Trattoria Siciliana,52.45794,13.32881
Pizza Abholen Steglitz,52.45794,13.32881
Sairan,52.46744,13.34194
Pizzeria Arrabbiata,52.4532,13.45231
Café am Buschkrug,52.45411,13.45093
Toscania City,52.4532,13.45231
Taverna Argo,52.45857,13.44761
Le Jardin,52.45819,13.44789
Muttis Kleine Pause,52.45848,13.44767
Gallo Nero,52.4552,13.44484
Zum Hufeisen,52.44797,13.44963
Big Burger by Mustafa,52.459102,13.447738
Britzer Stübchen,52.4549,13.4374
Avala-Grill,52.45631,13.43734
Nuovoforno,52.45646,13.43677
Dana Pani,52.45154,13.43842
Suden Gartenwirtschaft,52.46139,13.44362
La Mia,52.45579,13.43704
Curry Paule,52.45204,13.43779
Zum Britzer Krug,52.44917,13.43669
Pizzeria Mona Mia,52.46124,13.44564
Aladins Wundersnack,52.4607,13.4325
Sumak,52.44558,13.44549
Cafeteria J. Papenfuß,52.45266,13.4321
Fu Long,52.46145,13.43463
Chocolate & Cheese,52.44969,13.43636
Britzer Bistro,52.45297,13.43819
Der Berliner,52.46293,13.43453
L.A Burger Lieferservice,52.4555,13.43773
Ochsenstall Schloß Britz,52.44622,13.43708
Sushi Company Asia,52.45154,13.43842
Rialto Snack 3,52.45359,13.43852
Reckes Britzer Wiesen,52.44576,13.46142
Lumera,52.46157,13.44539
Oldies Bierhaus,52.461,13.43604
Palm Lounge,52.45281,13.43825
Chez Gustave,52.46407,13.43482
China Restaurant Reuter Terrassen,52.44497,13.45474
Pho Phan,52.46556,13.43266
Mekan44,52.46524,13.43285
Divan Ocakbasi,52.468361,13.449176
KFC,52.46493,13.45485
Imbiss Senel Kizilbayrak,52.46495,13.45344
Pizza Max,52.44316,13.45727
Hauptstadt-Curry,52.46633,13.44838
Curry Schmidt,52.44205,13.45759
KFC Berlin Grenzallee,52.465206,13.455132
Balmi Lachsräucherei,52.46824,13.44592
Huy Long Sushi,52.44408,13.44961
Gyros Express,52.44205,13.45759
Marcello,52.46652,13.45736
Atila's Kebabhaus,52.44521,13.45448
Ristorante Venezia,52.44176,13.4568
Bsr-Betriebsrestaurant,52.45207,13.42845
English Translations Learning English Robert Berridge Mathew,52.46783,13.4442
Chicken Grillhaus,52.46592,13.43267
Maximilian,52.4639,13.43845
BURGER KING,52.44318,13.43447
Pizzeria della Palme,52.46732,13.44226
Hai la Roman,52.46864,13.44493
Lahn-Eck,52.46753,13.44222
Cafe Wunderbar,52.46521,13.4339
Eisbar,52.44186,13.45785
Duman,52.46524,13.43285
Ristorante Pizzeria Forchetta&Company,52.45711,13.42738
Ali's Gemüse Kebap,52.442,13.45652
La Cascina,52.4652,13.43441
Ketchup 35,52.45221,13.43188
Steakhaus Barbecue,52.44454,13.43378
Sushi-Fabrik Berlin,52.46466,13.44294
Mehana Balgaran,52.46521,13.44239
Antepli Haciogullari,52.46779,13.44179
Asude,52.46566,13.43212
Grand Palast Dügün Salonu,52.46084,13.46407
Goldhähnchen,52.44236,13.45719
La Familia,52.44395,13.43231
Kuem-Ja Restaurant,52.44395,13.43231
Cafe Marlies,52.39287,13.20285
Fook Lam Mun,52.39272,13.20148
Restaurant Tick-Tack,52.387853,13.190356
Kaiserpagode,52.38518,13.19603
Griechisches Restaurant Korfu Stahnsdorf,52.394477,13.208188
Taj Mahal,52.38588,13.19847
Restaurant Schleusengarten,52.39281,13.21045
Bapu Restaurant,52.39665,13.20738
Meteora,52.40423,13.21472
Castagno,52.39369,13.21338
Eiscafe Castagno,52.39212,13.22144
Ebay Kantine,52.406669,13.186924
Aanjal,52.59663,13.33302
Orient Kitchen,52.59681,13.3535
Relief,52.60316,13.33457
Pizzeria Leonardo da Vinci Berlin,52.60924,13.3354
Dalldorfer Wirtschaft,52.60316,13.33457
Papa Pizza,52.60924,13.3354
Die Schorfheider Warenhandelsgesellschaft,52.61099,13.34395
Western Saloon,52.59681,13.3535
Da Massimo Trattoria,52.59678,13.33298
Ristorante Montana,52.59817,13.35524
China Box,52.597373,13.354745
Capitano,52.59735,13.34576
Markische Bierstuben,52.5965,13.33305
Pizza Fabrik Berlin,52.59585,13.33527
Cafè Blixen,52.59689,13.35385
Glaskasten,52.597336,13.35346
Mv Pasta&Pizza,52.59637,13.34649
Restaurant Kar Yee Cheung,52.597762,13.355682
Siggi's Imbiss,52.59805,13.35456
Fatih Serve,52.59906,13.35561
Boboq Märkisches Centrum,52.59689,13.35385
KFC,52.59724,13.35454
Ebruli Koeftehaus,52.59591,13.3357
The Vinh,52.59678,13.33298
First Kebab,52.59588,13.33602
Pizza Express,52.59774,13.35459
Pizzeria da Minno,52.60924,13.3354
Grill Time,52.60532,13.35675
Döner Time,52.59581,13.33407
Domino's Pizza,52.59488,13.33185
Tini's Inn,52.60693,13.36404
Gaststätte Trabant,52.60311,13.36257
Landfleischers Gaststätte,52.61818,13.35431
Restaurant Cristallo,52.60973,13.32955
Bulli S Genussbox,52.60658,13.32454
Romano,52.6089,13.32703
Landhaus Alt-Lubars,52.6175,13.35495
Restaurant Fließtal Reithalle,52.61774,13.35322
Restaurant & Pizzeria Malibu,52.60936,13.32845
BURGER KING,52.60759,13.32619
Dionysos,52.61,13.3304
Eisdiele Angelina,52.61784,13.35454
Dalmacija,52.59395,13.34739
Krystal Restaurant,52.5937,13.35699
Restaurant First Service,52.597155,13.330543
Frank Laskowski,52.59542,13.33524
Kinh Do,52.59445,13.33291
Taverna Orakel Berlin,52.59082,13.34785
Cavallino,52.59388,13.33405
Pizza Friends,52.59508,13.33276
Curry Corner,52.59542,13.33524
Castell,52.5937,13.35699
Asiana Village,52.59542,13.33524
Becerro,52.59558,13.33253
Trattoria Dolce Vita,52.59224,13.34932
Hof-Café,52.59391,13.33303
Berlin 26,52.59409,13.3613
Dönermeile,52.60759,13.32619
Susido Restaurant,52.43219,13.25878
Cake Artist,52.42846,13.25615
SUBWAY,52.43305,13.24264
Thai Cuisine,52.42968,13.25995
Curry-Station,52.4316,13.25934
SUBWAY,52.42993,13.25988
Efes Grill,52.43021,13.25935
Anneliese,52.43034,13.25979
Asado Steakhaus,52.43261,13.23603
Sumak,52.430846,13.259519
Goodtime,52.4298,13.25928
Asia MJ Snack,52.43063,13.2592
Bamboo,52.42864,13.25625
The Middle Way,52.42968,13.25995
Derby Klause,52.42811,13.23779
Kaffeespezialitäten Coffee,52.43021,13.25935
Zehlendorfer Grill,52.43052,13.25873
Cafe Bistro Tableau,52.43219,13.25878
Block House,52.43149,13.25883
Walter's Coffey,52.42891,13.25604
MR. Tokyo,52.43219,13.25878
Gartenhaus Cafe,52.43153,13.25781
Hanoian - Authentic Vietnamese Restaurant,52.4289,13.25945
Aysim,52.43063,13.2592
Ko Phai 33,52.43195,13.25916
Ado's Cucina,52.42982,13.25991
Berlin Bite,52.42029,13.25563
El Bandito,52.41701,13.25042
Coffeeshop Z,52.43261,13.25949
Hirkari Sushi,52.42977,13.2573
Asia Fu Loc,52.4289,13.25945
Ristorante Arcimboldo,52.43628,13.26071
Piazza,52.43499,13.25778
Rossosiena,52.43161,13.23134
Tomasa,52.43475,13.26263
Fatica,52.43413,13.24731
Da Gelo 2,52.43592,13.25701
Mühlengarten,52.43049,13.2671
La Fontaine,52.4356,13.25872
Liberty Pizza,52.43577,13.2578
Civans Imbiss,52.43576,13.26122
Lieblingswaffel,52.4348,13.26283
Burgerzimmer XII,52.4348,13.26283
Capital Gourmet,52.43077,13.26537
Restaurant Dubrovnik,52.43452,13.24962
Shaolin China Restaurant,52.43515,13.26169
La Scuola,52.43592,13.25701
Cafe Rodelhütte,52.4356,13.25872
Trecolori,52.43499,13.25778
Si,52.43866,13.24953
Sakura,52.43576,13.26122
Cavos-Restaurant-Cafe-Winebar,52.41698,13.26524
Sirtakias,52.41698,13.26524
La Sila,52.41935,13.26525
Ristorante Noi2due,52.41991,13.2256
Cucciolo,52.4337,13.26013
Trattoria Piazza Siciliana,52.43048,13.23045
Zehlendorfer Hof,52.43412,13.24702
Shamrock Pub,52.43577,13.2578
Shanling,52.43523,13.26131
Royal Greek,52.416628,13.265448
Brotzeit-Bistro,52.43454,13.24979
Rossopiena,52.43148,13.23102
Gedicht 161,52.41935,13.26525
Arkade,52.43485,13.25974
Teltow Grillhaus,52.39285,13.28942
Zum Weißen Kakadu,52.39795,13.2879
Bao Feng,52.57303,13.49627
Dolce Vita Steinofenpizza Berlin,52.57153,13.49975
Ristaurante Pizzeria Rossini,52.56998,13.49625
"Pizzafabrik, Deutscher Pizza-Bringdienst",52.56585,13.50357
Eisdealer im Riz - Berlin-Hohenschönhausen,52.56998,13.49625
Restaurant Amore Mio,52.56998,13.49625
Pizzeria Yasmin,52.56942,13.49657
Asia-Thai Imbiss,52.56942,13.49657
Chi Tien / Seven Day,52.56998,13.49625
Sportsbar Mc Metin,52.57433,13.50965
Barnim Quell,52.56689,13.49984
Pizzafabrik,52.58149,13.48266
Wirtshaus Malchow,52.5775,13.48356
Der Fischer vom Muggelsee,52.57799,13.4835
Panda,52.56998,13.49625
Aladin Bistro Firat,52.56998,13.49625
Mac's 63,52.56998,13.49625
Fleischerei Malchow,52.5775,13.48356
Cafe Julchen,52.57518,13.51112
Mandy's Gemüse Döner,52.5692,13.49607
Domino's Pizza,52.56892,13.51818
Chidoba Mexican Grill,52.565,13.50629
Kangaroo's Land,52.56088,13.49931
Aashirvad,52.57508,13.51832
Eis Cafe Florenz,52.564394,13.505766
Germanenhof,52.56568,13.50325
Philip Krohn,52.56315,13.51077
Hallo Pizza,52.56892,13.51818
Thai Nippon,52.56478,13.50578
BURGER KING,52.565,13.50629
Antalya Döner,52.56773,13.51544
Berliner Bierstube Alte Zeiten,52.56825,13.51434
Alanya Grill,52.561142,13.499946
Pizzeria la Rosa,52.56556,13.50534
Croatia,52.56863,13.51771
Cocos,52.565,13.50629
SUBWAY,52.565,13.50629
Nordsee,52.565,13.50629
Nnq2-Asiatische Küche,52.56088,13.49931
Hung Asia - Koch mit Herz,52.56746,13.51408
Kleingartenanlage Feldtmannsburg,52.56156,13.49265
Mac's Bistro,52.56137,13.49927
Macs Deluxe,52.56795,13.51229
Steakhaus Don Castillo,52.56859,13.51794
Kebap House,52.56497,13.50407
Bobby&Fritz,52.56381,13.50526
Jamal Shalai Restaurant,52.56859,13.51794
Chamelion Coffee,52.54058,13.35123
Hanoi St. 16,52.54156,13.35068
Spazio,52.54137,13.35093
Studio 7 Panketal,52.54869,13.34496
Corallo,52.54754,13.35407
Vagabund Brauerei,52.54792,13.34938
Dazwischen,52.54156,13.35068
Indian Curry,52.54672,13.34933
Baguetterie,52.54167,13.34937
Java House,52.5468,13.35006
Thai Son,52.54084,13.35087
Kubi,52.5415,13.34999
L'Escargot,52.54654,13.34956
See-Tank,52.54899,13.35006
Ristorante Galleria,52.54854,13.34753
Didim Grill Berlin,52.54172,13.34958
Butt's Spicy Kitchen,52.54156,13.34883
Klein Zaches,52.54711,13.35128
My Chicken Center Grillhänchen Döner,52.54163,13.34914
Don Pasquale,52.54195,13.35073
Caligo Lounge,52.54883,13.35292
Smack Grill House,52.5482,13.35191
Tropical Bar Berlin,52.5414,13.34861
Non-Stop,52.5482,13.35191
Safran Lieferservice Berlin,52.54672,13.34933
Spice,52.54163,13.34914
Eiskult Wedding,52.54053,13.34935
Uni Burger,52.54167,13.34976
Pizza Miranda,52.54878,13.35445
Köfteci Musti,52.54856,13.35302
Salone Market,52.54891,13.35174
Taverna Korfu,52.54509,13.34276
Bio Company,52.549,13.35407
Spinner und Weber,52.54618,13.34887
Pizza la Rosa,52.549,13.35407
Tassenkuchen,52.55055,13.35953
Schrader’s,52.55143,13.35866
Gangnam,52.54888,13.36083
Lino's Barbecue,52.54945,13.36151
Chin Chin Weinstudio,52.55347,13.34421
Fedora Berliner Eismanufaktur,52.54726,13.3581
Lebuffet,52.54613,13.3601
BURGER KING,52.54596,13.35945
Saray Restaurant,52.55037,13.35265
Aman,52.54186,13.35601
Chotto Asian,52.55018,13.35294
Pamfilya,52.54629,13.3586
Lei's Küche,52.54966,13.35133
Fredericks Cafe & Bar,52.55046,13.3492
Cozymazu,52.54186,13.35601
Coffee Star,52.54767,13.35641
Deichgraf,52.539705,13.352553
Konya Gözleme,52.54425,13.35939
Motte,52.54966,13.36202
The Coffee MAN,52.54646,13.35916
Osteria bei Pino,52.54406,13.36036
Alles Perfetto bei Petersen,52.54613,13.3601
La Fiamma Pizza Döner,52.54507,13.3623
Chopp&Roll,52.54613,13.3601
Falafel al Amin,52.54444,13.35996
Jojo Kinderwelt,52.549,13.36101
LaLuz,52.55335,13.36059
Damaskus Konditorei,52.5474,13.35785
Moccachino,52.55134,13.3509
Funf & Sechzig,52.54011,13.35262
Ristoratrasse,52.55001,13.35828
Kaiyo,52.54948,13.34766
See Grillhaus,52.54954,13.35106
Restaurant 12,52.54185,13.35748
Cafe Auszeit,52.54004,13.35288
Carik Kuruyemis,52.54983,13.35356
Imren Grill,52.5511,13.35038
Royal Garden,52.55265,13.34762
Simit Evi,52.54687,13.35661
Chibee,52.54286,13.35617
Schupke,52.54319,13.35674
Krua Thai,52.54589,13.35794
Naveenapath,52.54185,13.35748
Umi Restaurant Gendai No Kaishaku,52.55367,13.34678
Uuu Chinese Dining,52.54189,13.35484
Agam Baklava,52.54846,13.35502
Shikgoo,52.54269,13.35694
Lindengarten,52.53933,13.34998
The Visit Coffee,52.54726,13.3581
Pizza Max,52.54996,13.34938
Taverna Hellas,52.5498,13.35803
Asia Box,52.55001,13.35325
Ya Karim,52.54973,13.35277
St. Bess,52.54199,13.35663
Cafe am Ufer,52.54004,13.35288
Kaplan,52.54674,13.35807
H&H Asia Imbiss,52.54655,13.35927
Asia Deli,52.54966,13.35133
Café Tante Nanni,52.54191,13.35628
Grill Imbiss Chili,52.53612,13.35672
Original Gemüse Kebap Servet's,52.54576,13.35857
Xiao Chuan,52.54954,13.35106
Milette,52.54948,13.34766
Café / Bar- Planlos,52.55152,13.35708
Park-Café Rehberge,52.55161,13.33755
Alte Kantine Heinersdorf,52.57414,13.4449
Yu Garden,52.56991,13.43694
Heinersdorfer Krug,52.5682,13.43973
Trattoria Toscana Restaurant Pankow,52.5682,13.43973
Divan Döner Imbiss,52.56703,13.43925
Ramonas Imbiss,52.56316,13.46088
Curry Land,52.56442,13.44519
BURGER KING,52.56841,13.42834
Kentucky Fried Chicken,52.57223,13.42972
KFC,52.57223,13.42972
Kleingartenanlage Märchenland,52.574995,13.46488
Märchenklause,52.574992,13.464896
Kebab Boy,52.56442,13.44519
Holy Everest,52.54697,13.4037
C-B-D.One,52.54752,13.40246
Hirsch & Hase,52.54209,13.39374
Tante Kathe Berlin,52.54027,13.40246
Mauersegler,52.540683,13.403399
Indira Stivale,52.5406,13.39261
Hue Snack,52.548036,13.390252
Frau Kruger -das Cafe am Mauerpark,52.54828,13.40106
Graun Back,52.54326,13.3989
Ristorante Il Paese,52.542,13.39768
Dalmacija,52.540325,13.39471
Asia Spezialitäten,52.5415,13.39316
Akram Arabic Diner,52.54618,13.39027
Sveda - Great Food & Drinks,52.54776,13.40108
Prinzen Falafel,52.54027,13.40246
Maximilian,52.54316,13.39266
Multi-Shop Eisenkralle,52.54341,13.39695
TU Desayuno Berlin,52.54069,13.38975
Hongkong Garden,52.54618,13.39027
Unicorn.Berlin,52.542,13.39051
Fried ICE Cream,52.54027,13.40246
Der Wurstmann,52.5423,13.39943
Sun Day Burgers,52.542055,13.402537
Eis Henri,52.5459,13.39049
Unicorn,52.54051,13.3948
Cholila,52.54697,13.4037
Reis Mama,52.54414,13.39191
Prater,52.53983,13.41077
Bonanza Coffee,52.53996,13.40545
Kochu Karu,52.54146,13.40909
Oderquelle,52.54015,13.40607
The Bird,52.54674,13.40575
Mangelwirtschaft,52.55216,13.41179
Lola Was Here,52.55182,13.41081
Song Nguu,52.54674,13.40575
Pune Indishes Restaurant & Cocktailbar,52.54023,13.40586
Yogu Ono,52.53848,13.41049
La Premiata Ditta Weinbar,52.5492,13.40958
Phuoc,52.55111,13.40532
Neugruns Koche,52.54397,13.41202
Goa II,52.54712,13.40869
Salvatore Pulvermacher,52.54707,13.40948
Par Creamery,52.53971,13.40611
Kohlenquelle,52.54915,13.40823
26 Shibuya,52.53743,13.40823
Roji,52.539,13.40912
Morning Glory,52.53632,13.40764
Tapitas,52.54734,13.41104
Onkel Ho,52.54687,13.4059
Ribs Revolution,52.53644,13.41054
Restaurant 51,52.5387,13.40879
Arirang Bulgogi,52.55368,13.40981
The Bird Barbecue,52.53778,13.41125
F Bar,52.55194,13.38675
My Daddy's Gelateria,52.55239,13.38737
Der Neue Weltempfaenger,52.53655,13.40074
Cookies and Cream,52.53939,13.40251
Vedis,52.54172,13.41178
Kyo Japanese Grill,52.53783,13.40865
Studio 8 Bar Gallery,52.55177,13.38653
Tbilisi,52.55188,13.4081
Oderberger Restaurant,52.53802,13.4106
Cafe & Bar Norah,52.54693,13.40661
Varga Hennecke,52.53919,13.40863
Mauerwinzer,52.53936,13.40214
Dong do,52.54129,13.41107
Factory Kitchen,52.53681,13.39495
Naan,52.53888,13.40831
Pane E Vino,52.54053,13.41151
Morgenrot,52.53754,13.40892
Omoni,52.54911,13.40894
Indian Village,52.54023,13.40586
Kauf Dich Glucklich,52.53925,13.40734
Die Schule,52.53711,13.40858
"Fitery - Healthy, Sport & Fitness Food",52.54742,13.41195
Café Krone,52.53971,13.40611
Holy Flat!,52.54095,13.41104
Habba-Habba,52.53886,13.40975
Burger World,52.53933,13.40826
Taco Love,52.54124,13.41168
Naschpunkt,52.55106,13.41085
Wonderwaffel,52.551,13.38473
Shalimar,52.55232,13.38759
"Cafe Haferkater, Mauerpark",52.54126,13.41134
Aceto Lokanta,52.54027,13.41123
Domino's Pizza,52.53962,13.39574
Engelberg,52.5397,13.40727
Weinerei Perlin,52.53584,13.40486
Kani Mani,52.53898,13.41045
Asteria,52.5416,13.4118
El Sabor,52.54687,13.4059
Restaurant les Valseuses,52.54131,13.41083
Labyrinth,52.53933,13.40826
Vielfalter,52.5367,13.39689
Ristorante Bella Italia,52.54745,13.38923
BURGER KING,52.5377,13.40851
K'UPS,52.53981,13.41132
Kapitalist,52.53815,13.41137
Rocca Pizza,52.54691,13.40631
Sobhi Ismail,52.53886,13.40975
Eismännchen,52.39362,13.24453
Shi Shan China Restaurant,52.39817,13.24492
Trattoria Toscana,52.39362,13.24453
Athos,52.39336,13.2446
Trattoria Vino E Cucina,52.40067,13.24446
Ristorante Casa Mia,52.40132,13.25445
Taverna Samos,52.40129,13.26146
Nuova Italia Ristorante,52.40012,13.24683
Domino's Pizza,52.40172,13.25931
Clubrestaurant in Sportpark,52.40179,13.23578
Pho Hoi an BBQ,52.3986,13.24645
Diekmann,52.40235,13.26044
Curry Imbiss,52.39645,13.23557
Hongkong Bistro,52.39873,13.24804
Burgerme,52.40145,13.26324
Tele Pizza,52.40551,13.23481
Restaurant Athos Gastronomie,52.40583,13.23452
Pizza Jack,52.40108,13.26745
Lee Su,52.40551,13.23481
Mac's Kebap Bistro,52.40583,13.23452
Pizza Boss,52.40091,13.2649
Unami,52.40434,13.25585
Buena Vista Restaurant,52.39933,13.23088
Restaurant Bofflamott,52.40271,13.26419
Eisbuben,52.40583,13.23452
Chopsticks,52.38283,13.24329
Kleinmachnower Grillhaus,52.40551,13.23481
Inos Griechische Feinkost,52.40367,13.25243
Restaurant Hellas,52.386235,13.263543
Kalidasa,52.40145,13.26324
Osteria Ballerino,52.39107,13.22564
Dolci,52.39311,13.27086
Café am Neuen See,52.510275,13.344448
Keyfi Sefa,52.51849,13.34141
Art Canteen,52.51822,13.34641
Weinwirtschaft in der Akademie der Künste,52.51822,13.34641
Hansa-Kebab & Grillhaus,52.5188,13.34198
Schleusenkrug,52.51145,13.335195
Curry 36,52.50804,13.33331
Hugos Restaurant,52.50696,13.3455
Eisbox,52.52218,13.33619
Buchkantine,52.52141,13.33799
Da Ponte,52.522,13.34893
Carl & Sophie Spree Restaurant,52.52305,13.34606
Pho - Noodlebar (am Zoo),52.50628,13.33338
Waldschanke Zoo Berlin,52.50682,13.33419
Blend Restaurant,52.50606,13.3439
Spreegold Store im Bikini Berlin,52.50558,13.33502
Roca,52.50562,13.33286
Atlantis,52.50837,13.34884
Ergun's Fischbude,52.52006,13.35778
BURGER KING,52.51401,13.33749
Jim Block Bikini,52.50558,13.33793
Angkor Wat,52.52041,13.35604
Giraffe,52.51475,13.33877
Lir Irish Bar,52.52022,13.34433
Promo,52.52205,13.33629
5   Cinco by Paco Perez,52.50976,13.34605
Ristorante la Sardegna,52.50655,13.34633
Ristorante Don Giovanni,52.52306,13.35979
Cafe Ella,52.52316,13.33589
Zwolf.Uhr.Mittags,52.5228,13.34914
Meckatzer Bellevue,52.52023,13.34418
Taverna Phaestos,52.52292,13.33424
Neumann's,52.52321,13.35854
Neretva Grill,52.5205,13.33355
Kochbar Berlin,52.51929,13.35566
Master Wok's Asia Imbiss,52.52243,13.33419
Pizzateufelchen,52.52022,13.34433
Trestanze,52.52169,13.33633
Mokka,52.52169,13.33633
Ragazzo di Strada,52.52261,13.33421
Spree-Kantine,52.52288,13.34867
Om,52.52262,13.34907
Zoo Restaurant,52.50558,13.33952
Chay Village,52.508863,13.350424
Catering's Best by Intercontinental Berlin,52.50696,13.3455
Bibimix,52.50558,13.33793
Risa Chicken,52.50628,13.33338
L.A. Cafe,52.50696,13.3455
Kuk Kantine im Ernst-Reuter-Haus,52.51401,13.33311
Kantini,52.505577,13.337503
Bagyard,52.50558,13.33502
Villa Culinaria,52.50558,13.33502
Copper & Flint,52.50558,13.33502
Toast the City,52.50628,13.33338
Kantine im Felleshus,52.50855,13.35062
Asiagourmet,52.50718,13.3328
Felleshus,52.508546,13.350637
Cuccis,52.50682,13.33419
Le Bouveret,52.50606,13.3439
Marlene Bar,52.50696,13.3455
Kafe Brel Savigny Platz,52.50626,13.34452
CAA Berlin,52.50695,13.3515
Zooba,52.50592,13.33395
Einstein Kaffee,52.50553,13.33562
Jim Block Berlin,52.50553,13.33562
Chum's Vietnamese Cuisine,52.52333,13.33591
Trattoria Fidelia,52.519596,13.355759
Schulers Gastzoonomie,52.50682,13.33419
Chicano - Real Burritos,52.50547,13.33623
Cafe Francesco,52.50632,13.3452
Ellipse Lounge,52.50556,13.35498
White Chocolate Cafe,52.507897,13.344379
Casa Matti,52.522,13.34893
Cafe Minouche,52.50645,13.34379
Ja! Niko Ja!,52.5065,13.34608
Weimarer Dreieck,52.52336,13.33696
Eisteufelchen,52.5202,13.3446
Bistro Bonjour,52.52021,13.34748
Teigmeister,52.52132,13.33446
Cafeteria Arche Noah im Franziskus Krankenhaus,52.50632,13.3452
Oslo Kaffebar Embassies,52.50855,13.35062
Cornelius Schuler,52.50558,13.33952
Starbucks,52.50808,13.33335
Café Paci,52.52313,13.34927
Bistro Avci Döner,52.50816,13.3334
Buoni,52.50562,13.33286
Meißner's Probierstube,52.52345,13.33788
Cafe Einstein Stammhaus,52.50205,13.35471
L'Osteria,52.50544,13.33879
Zollpackhof,52.52125,13.36675
Paris Moskau,52.522567,13.364445
Duke,52.50181,13.3382
Colette,52.50117,13.33957
Kowski - Prost und Mahlzeit,52.52791,13.34159
Quasimodo,52.50562,13.32899
Eventlocation Talk About Race,52.51965,13.32717
Weltwirtschaft am HKW,52.51853,13.36458
Kin Dee,52.50352,13.36249
Der Everest Restaurant,52.52645,13.34938
G Wie Goulasch,52.48846,13.39062
Sarod's,52.48788,13.39467
Bom Aus Portugal,52.48776,13.39425
Austria,52.48877,13.39663
Fermento Wine,52.48773,13.39467
Veggie & Vega - Restaurant,52.48884,13.39524
Peter Schlemihl,52.48763,13.39083
Pas Normal Cafe Bistrot,52.48867,13.39468
Call A Pizza,52.48835,13.39476
Heidelberger Krug,52.48864,13.39184
Golightly Coffee Bar,52.48788,13.39467
Taverna Dimokritos,52.48852,13.39301
Café Goldfries,52.48556,13.3942
Rekorder Galerie Cafe,52.48799,13.39049
Hot Pot Soup,52.48791,13.39425
Castel Montecroce,52.48605,13.39424
Felix Austria,52.48885,13.39504
Momo,52.48867,13.39468
Kraut & Ruben,52.48846,13.39062
Bierpause,52.48718,13.39559
Fratelli la Bionda,52.48874,13.39735
Pastarium Berlin,52.48757,13.39137
Neuer Bergmann,52.48884,13.39524
Tre Xanh,52.48746,13.39659
Cha for Tee,52.48688,13.39466
Kreuzberg Kocht,52.48815,13.39053
Cafe Strauss,52.48868,13.40121
Agra,52.4863,13.39424
Barfers Wellfood,52.48857,13.39679
Brauhaus Sudstern,52.48842,13.41048
Curry 36,52.49346,13.38767
Rauschgold,52.49098,13.38645
Melitta Sundstrom,52.49083,13.38723
Vanille & Marille Eismanufaktur,52.49148,13.38633
Atlantic,52.48983,13.38984
Maly Ksiaze,52.48808,13.40758
Loblich,52.48892,13.41105
Hako Ramen,52.48944,13.39046
Hinterland,52.49033,13.40211
Durbar Restaurant,52.48485,13.38306
Cocoro,52.49082,13.38639
Kiez Keb Up,52.48969,13.388776
Nuova Roma Berlin,52.49228,13.38927
What A Treat Berlin,52.49204,13.39361
Maselli,52.49169,13.39095
Huong Que,52.48962,13.39129
Cavaclub,52.4894,13.39458
Cabana Coffee Roasters,52.49274,13.395
Antillo,52.48944,13.39658
Kinnaree,52.4886,13.40703
Phantasia Restaurant,52.49235,13.38703
India,52.48983,13.38984
Kochi,52.48935,13.3932
Rubens Coffee Lounge,52.49058,13.38714
Amici Amici,52.49264,13.38717
Die Legende von Paula & Ben,52.48988,13.40435
Madang,52.4921,13.39018
Arman,52.49199,13.38771
Good Morning Vietnam Vegan,52.4899,13.38936
Yummy Kitchen Berlin,52.49213,13.3944
Pagode Thai Kitchen,52.48932,13.39344
Superhuhn Gemuesekebap,52.4897,13.38879
Junction Bar,52.49149,13.39323
Seerose,52.48966,13.40774
Piechas,52.4894,13.39458
Kreuzberger Himmel,52.49285,13.38636
Les Epicuriens,52.4894,13.39458
Yorck's Kebap Allin,52.49281,13.38656
Guru,52.49007,13.40861
Milagro,52.4894,13.39077
Steakhaus Angus,52.49008,13.38355
Blarney Irish Pub,52.4895,13.38549
Bistro Nazar,52.484102,13.385228
Osteria No. 1,52.48977,13.38332
Mokkabar,52.49198,13.39391
Chapter One Coffee Berlin,52.48979,13.39583
Abirams,52.49226,13.39444
Kremer & Bremer Drama,52.49072,13.38719
Sushi Cube,52.49081,13.39403
Fes - Turkish Bbq,52.48923,13.40872
Doldenmaedel Braugasthaus,52.48942,13.38598
Zyankali Bar,52.49155,13.39297
Tutti Island,52.49094,13.39407
Veganz,52.4894,13.39458
Lupita,52.48944,13.39046
Oetcke,52.49109,13.41051
Lieferservice Berlin,52.49237,13.39818
Gasthaus Valentin,52.48892,13.41105
Pizza Prinz,52.49007,13.40861
Al-Assiel,52.49007,13.40861
Das Pizzarium,52.49135,13.41132
Habibi,52.48945,13.4085
Restaurant Ammamma,52.49205,13.4116
Piccola Romantica,52.48914,13.39255
Marktwirtschaft,52.4894,13.39458
Goldam,52.49331,13.38758
Pizzeria am Wasserturm,52.48732,13.38759
Sufis,52.4932,13.38452
Zwanglos III,52.49192,13.39111
Reds Deli,52.49011,13.38385
Roma,52.48541,13.34764
Renger-Patzsch,52.4874,13.35209
Pequena Habana,52.48774,13.34925
Mezban,52.4851,13.35216
Maigold,52.4882,13.35258
Kardamom Cafe & Catering,52.48548,13.34021
Man Kee (Eh. Plumhaus),52.48859,13.34208
Flying Fish Sushi,52.48575,13.35188
Pasta Bar Italiano,52.48096,13.34948
Sapore E Passione,52.48725,13.35058
Alpenkantine Berlin,52.48556,13.35463
Tuma Be,52.48716,13.35334
La Dolce Vita by Salvatore,52.48541,13.34764
Double Eye,52.48795,13.35406
Dolce Pizza,52.48469,13.34605
Rueyam Gemuese Kebab,52.48446,13.3541
Esmeraldas Inka Cafe,52.48621,13.3504
I Due Emigranti,52.48656,13.35161
Masaledar,52.48158,13.35034
Cashcode Entertainment,52.48122,13.34726
Tadka,52.48158,13.35034
Le Couscous,52.48873,13.34945
Mensa Schonenerg,52.48556,13.35463
L'Antica Pizzeria da Michele,52.48026,13.34761
B34,52.48679,13.35229
India Haus,52.48158,13.35034
Food Club,52.48575,13.35188
Vini E Salumi,52.48891,13.35374
Carlos Tapas,52.4861,13.35144
Cafe Schoengrau,52.48873,13.34945
Orijin Döner,52.48186,13.34896
Pizza al Wadi Imbiss Berlin,52.48446,13.3541
Domino's Pizza Berlin Schöneberg Süd,52.48051,13.35082
Choice,52.48813,13.35439
Imbiss Hauptgrill,52.48131,13.3481
Whats Up - Café Bar,52.4813,13.34898
Doree,52.48116,13.35062
Lenzig,52.48759,13.34978
Ri Trovo,52.48115,13.34474
Ratsstuben,52.485176,13.344784
Trattoria Perla Jonica,52.4874,13.35403
Ratskeller Schoneberg,52.485176,13.344784
Mangia E Bevi,52.48741,13.3492
Meininger's,52.48615,13.34539
Dominicus Pizza,52.4813,13.34898
Zwei Dicke Bären,52.48173,13.35062
Mitburger,52.48511,13.35367
Café Ciao Ciao Italia,52.48138,13.34747
Ong Cat,52.48579,13.34553
Biergarten Platzhirsch,52.48402,13.34374
Yogi Haus,52.48626,13.35059
Taormina II,52.48148,13.34833
Ding Dong,52.48489,13.35296
Dedem Imbiss,52.48016,13.35161
Lumi's Bbq,52.48489,13.35317
Pinguin Club,52.4874,13.35209
Carrousel Restaurant,52.48051,13.35082
Chennai Dosaj,52.48842,13.35415
Taverna Kos,52.48513,13.34661
Bar Oro Nero,52.48827,13.35428
Que Pasa,52.48762,13.35434
Habibi,52.48813,13.35439
Timeless Café,52.48463,13.35262
Vietrice,52.48549,13.34535
Manafood,52.48695,13.35235
Sangam,52.48843,13.35366
Damascus Aroma,52.4803,13.3513
Vino Toscano,52.48885,13.34144
Lipperts Pausen Gaststubchen,52.48511,13.35367
Thai Viet,52.48572,13.34535
Capri Italiano,52.4813,13.34898
Ammamma,52.4851,13.35216
Familiencafé Lütte,52.48888,13.34941
Good To Go Caribbean Markt,52.48237,13.34966
Baguetteria Badensche Straße 55,52.48548,13.34021
Singh Indische Spezialitäten,52.48809,13.34845
Cubo Restaurant Japanese Home Cooking & Sushi Bar,52.4851,13.35216
Cafe de Enrico,52.48084,13.34998
Salumeria Treviso,52.48754,13.34931
Raja Indisches Lieferservice,52.48122,13.34726
Trattoria Toscana,52.48115,13.34474
Ivgi's Kosher Restaurant,52.48461,13.34576
Lina Rothenberger,52.48705,13.35304
Rum Depot,52.48829,13.35099
La Piano,52.48226,13.34274
Bärbucha Kombucha,52.48692,13.35039
Lacucinapiccola,52.48809,13.34845
Balkan Grill Haus,52.48017,13.35257
Vanille & Marille,52.48723,13.35354
Grillstation,52.48549,13.34535
Eivgi's,52.48461,13.34576
Sultan Döner,52.48017,13.35257
Bandir 27,52.48396,13.35267
Shawarma One Schöneberg,52.48186,13.34896
Dujo Restaurant Cafe Cesarra,52.48579,13.34009
Im Baum,52.4855,13.34902
Hannibal,52.48451,13.35237
Laax,52.4824,13.34417
Teddys Kinder Cafe,52.48686,13.34325
Lale Bistro,52.48017,13.35257
Moon Restaurant,52.54857,13.4503
Konnopke's Imbiss,52.5484,13.45311
Berlitalia,52.54785,13.45045
Engels-Brunch,52.54827,13.45319
Konnopkes Diner & Fleischerei Oppen Seit 1879,52.5484,13.45311
Ella Stracciatella,52.54107,13.44718
China-Restaurant Alles Gute,52.54291,13.44399
Mac's Bistro,52.54331,13.44087
China Restaurant Phoenix,52.54348,13.44209
Porn Dogs,52.54452,13.44048
La Paz,52.54746,13.45315
Fellini Pizza,52.54864,13.45007
Bio Company,52.54785,13.45045
Euro Snack,52.54331,13.44087
Pastaladen,52.5488,13.44956
Familienzentrum Weißensee,52.54823,13.45271
Anton Grill,52.54829,13.45184
Babuschka,52.55054,13.44704
Mandelbaum,52.54917,13.45907
Confettibrause,52.55176,13.45355
Platon Restaurant,52.55317,13.44832
Zur Haxe,52.54477,13.43699
Willy Bresch,52.53575,13.43324
Merry Guten Appetit,52.54905,13.45607
La Famiglia,52.55051,13.45819
Bistro Gümüs,52.54994,13.45905
Happa-Happa,52.54848,13.45947
Cafe Mirbach,52.55231,13.44868
La Bandida,52.54917,13.4484
Eiscafe Surprise,52.54995,13.44592
Griechische Feinkost Cafe Mana,52.55349,13.4355
Grill Melis,52.53611,13.43397
Pizzeria Mohamed Karout,52.53754,13.43529
Eiscafé am Park,52.54019,13.43345
Diskothek Harmonie,52.55031,13.4423
Langhans Grill,52.55131,13.44242
Grillhaus,52.53977,13.43213
Gaststätte Schwarzer Kater,52.5534,13.43461
Schnitzel Koenig,52.53698,13.4345
Gaumenschmaus,52.5506,13.43253
Lohrentz Eck,52.54116,13.43837
Z,52.53614,13.43614
Zur Alten Gaslaterne,52.54019,13.43345
China Restaurant Dynasty,52.54811,13.43895
Zollkantine,52.5425,13.4349
Cafè Froilein,52.54887,13.45809
Eisspatz,52.55303,13.4496
Schiller Burger,52.54997,13.45779
Eis und Heiss,52.54504,13.43757
Cafe Eckstern,52.54634,13.43384
Thai-Ha Bistro,52.54905,13.45607
Viet-Food-Berlin,52.54959,13.45602
Daniels,52.54215,13.45678
Drachen-Asia-Bistro,52.55024,13.46043
Burger Stop,52.53593,13.43434
Lecker & Satt,52.54167,13.43871
Le Food,52.54962,13.44813
Bambus am See,52.55049,13.46164
Herbert's,52.54854,13.45653
Ambe,52.54374,13.43776
Dunckerclub,52.54637,13.424
Banh Xeo Saigon,52.53422,13.43129
Lamifa Restaurant,52.53545,13.45329
La Casa Buena Vista,52.55003,13.46487
Cafe Simply,52.53427,13.43149
Ataya Caffe,52.54714,13.4272
Thüringer Stuben,52.5443,13.4229
Call A Pizza,52.54619,13.42709
Orange Coffee,52.54735,13.42804
Trancina,52.54304,13.4258
Domino's Pizza,52.55183,13.43101
Flax,52.53577,13.43119
Chez Maurice,52.53258,13.43511
Atopia Kaffeehaus,52.54154,13.4252
Gobento,52.54212,13.42419
Salad Season,52.54304,13.4258
Minh,52.54055,13.42462
Storkower Str 123,52.53545,13.45329
Buddys Burger,52.55223,13.46662
Tandoori,52.54993,13.46299
Karthago,52.55007,13.46364
Yellow Pizza,52.55003,13.46344
Strandbad Weissensee,52.552448,13.466019
Park-Klinik Küche,52.55493,13.45183
Milchhauschen Berlin,52.55453,13.46035
Lieferservice High Speed Pizza,52.55073,13.46276
38 Indochina Kitchen,52.53352,13.45579
Lao Xiang,52.54619,13.42709
Gaststätte Zille-Eck,52.5443,13.4229
Thai Son Bistro,52.53416,13.43803
Mundis,52.552,13.42892
Baltic Brothers Coffee,52.54422,13.43173
Knofel,52.54699,13.42421
Kaffee.Bar,52.54461,13.42303
Asia Dream,52.5452,13.42801
Coconut,52.53442,13.436
Korea Haus,52.5309,13.44337
Dezi,52.53323,13.43379
Obok Bistro,52.54721,13.42527
Sky,52.38893,13.49855
La Merita,52.40289,13.5115
Domino's Pizza Berlin Rudow Süd,52.40289,13.5115
Cindy's Diner,52.38793,13.515671
BURGER KING,52.3892,13.51648
Marché Arabica Bar,52.388688,13.51836
Arel,52.40393,13.50687
Restaurant,52.388348,13.51834
Leonidas Fotiadis Restaurant,52.40364,13.50612
Eiscafé Zauberkiste,52.40524,13.50623
Marché Bistro,52.388793,13.518897
Marché Zigolini,52.388812,13.518913
Die Alm - Berlin Airport,52.38868,13.51735
Pizza J.A.C.K.,52.40377,13.50576
Witty's Bio-Currywurst,52.38881,13.5184
Mama Burrito & Sons,52.388523,13.516321
Toms Original Hot Dogs,52.386715,13.513516
Nea-Politia,52.40364,13.50612
Augustiner Bräu Berlin Schönefeld Flugafen,52.388758,13.516976
Viertel Bistro,52.40393,13.50687
Laggner S Almhutte,52.38879,13.51696
Sole D'Oro,52.42605,13.44363
Filia,52.42595,13.44331
Cordoba,52.42541,13.44188
Bereket,52.424549,13.441253
Pizzeria Renaso,52.42562,13.44408
Elvan Grillhaus,52.43141,13.4614
Coffee Fellows,52.42933,13.45527
Café Cafeteria Wernicke,52.42933,13.45527
Immergrün,52.42933,13.45527
Jadera,52.43263,13.45392
Kentucky Fried Chicken,52.42933,13.45527
Al Teatro,52.429643,13.45514
BURGER KING,52.43006,13.45569
Pizza Europa,52.42941,13.45733
BURGER KING,52.43026,13.45597
Thai Nippon Bar,52.429142,13.456647
Waffle Brothers Gropius,52.43061,13.45513
Eiscafé Russillo,52.42941,13.45733
Wurst & Würstchen,52.429186,13.455206
Chidoba Mexican Grill,52.42933,13.45527
Pan,52.42933,13.45527
KFC,52.42996,13.45607
Hue Snack,52.42982,13.45495
Pizza Hut,52.43026,13.45597
Lebkuchen Schmidt,52.42933,13.45527
Gyros Express,52.43274,13.46083
Wurst und Würstchen,52.429147,13.453435
Bei Lu,52.43223,13.46173
Pizza Europa,52.42343,13.43658
Imbiss Kemmet,52.42408,13.43671
Burger Area,52.42666,13.43579
Split,52.41838,13.44406
Moe's American Pizza,52.42674,13.43492
Café Peoples,52.42332,13.43724
Döner 63,52.42666,13.43579
Daju Bhai Express,52.42674,13.43492
Olympia,52.42403,13.43596
Trattoria di Benni,52.42333,13.43631
Prototype Burger Berlin - What‘S Your Type ?,52.42294,13.43701
Stolpertreppe,52.42247,13.43738
Cafe Melanie,52.42468,13.43593
Chill Out Cafe,52.42318,13.4373
Hallenspielplatz Dobbertin,52.42651,13.43543
Le Pique-Nique,52.42673,13.43741
Hakika,52.42351,13.43565
Kropp,52.429291,13.456701
Magic Donuts,52.429812,13.456353
Laden und Bistro in den Gropius-Passagen,52.42938,13.45658
Sonnenblick,52.42784,13.46914
Haci Baba,52.43236,13.46212
Vegan Berlin,52.43676,13.44743
Arno's Imbiss,52.437211,13.447727
ICE Café Mimoza Pizzeria,52.42389,13.46331
Atrium Restaurant,52.42553,13.46246
Restaurant & Snack al Balad,52.42389,13.46331
Ilker,52.43579,13.43464
Thai Nippon Sushi Bar,52.43676,13.44743
Maras Eis Fruhstuckshaus,52.43414,13.43411
Honigtopf Restaurant & Cafe,52.42037,13.42456
Mr. Pizza,52.42081,13.42889
Tings Lon-Men,52.42037,13.42456
Yummy Döner,52.43579,13.43464
Lipschitz Grill Berlin,52.42826,13.46835
Vegansia,52.43676,13.44743
Pizza Lon Men II Berlin,52.42037,13.42456
Restaurant Scheune,52.48892,13.2612
Spanferkel Lieferservice,52.48892,13.2612
Waldmeister,52.48952,13.26009
Sarajevo Inn Grunewald,52.48937,13.26158
Restaurant Floh,52.488,13.26346
Shor,52.4825,13.26691
Capriccio,52.48368,13.2668
Casetta Croccante,52.48793,13.26292
Sommergarten am Wasserturm,52.54358,13.29071
Call A Pizza,52.53689,13.28648
BURGER KING,52.54741,13.31058
Restaurante Masha,52.5359,13.29994
Stari Most,52.53742,13.28581
La Caravelle,52.55186,13.30303
Halem Grill,52.53742,13.28581
Cafe Jungfernheide,52.53885,13.28289
Restaurant Bibi,52.53689,13.28648
Diner 71,52.54769,13.30526
Red Baron Berlin,52.554205,13.291914
Marche Bistro - Airport Berlin Tegel,52.55539,13.29617
Baha - Doner,52.54594,13.31884
Bistro Michalski,52.54608,13.31576
Balkh Restaurant,52.53514,13.29959
Tegel Terrace,52.554063,13.292666
Goebel Bistro Berlin,52.53797,13.28018
Adria Grill,52.54593,13.31548
Curry König,52.53101,13.30106
Kulturbiergarten Jungfernheide,52.54063,13.28191
Gaststätte Einigkeit,52.60095,13.3923
Restaurant Centenario,52.59354,13.40264
Family Café,52.60684,13.41991
Cafe Steckenpferd,52.61925,13.39355
Agnes Neuhaus Cafe,52.59141,13.39942
Haus Schönwald,52.59576,13.39093
Marron,52.5916,13.39298
Freia's Imbiss,52.60628,13.41949
Hunga Fabrik,52.45671,13.40021
Funkwerk.Kantine Powered by Dbcatering,52.45454,13.3953
Studio Balance One Stefan Drechsler,52.45758,13.39384
Grünes Wasser Pizzeria & Grill,52.455905,13.401074
DB Catering,52.45488,13.39516
Daily You,52.4554,13.39483
Redo XXL,52.45451,13.384853
Lebuffet,52.45961,13.38482
Amma,52.45724,13.38374
Dosa and More,52.45784,13.3839
Pomodori Tempelhof,52.45467,13.38455
Cafe Klangwerk,52.4597,13.38241
Aaina Tempelhof,52.45683,13.38367
Domino's Pizza,52.45784,13.3839
Puppen Cafe,52.45034,13.38464
Glave Inh. André Wartaniantz Walter Sanitärinstallation,52.46136,13.40469
Porto - Restaurant - Cafe - Eis - Bar,52.45467,13.38455
Albrechtshöhe,52.46091,13.39441
Kaffeeschwestern,52.45798,13.38478
Hai! Sushi,52.44725,13.38571
Pizza Max,52.45571,13.38268
Curry Tempel,52.45994,13.38442
Maximilian Imbiss,52.45467,13.38455
Kebab House,52.44574,13.38513
SUBWAY,52.45467,13.38455
Cafe Makara,52.44982,13.38534
Hou Wang,52.4561,13.38426
Preussen-Quelle,52.45792,13.38542
Siafood,52.45034,13.38464
Salitos Beach Berlin,52.45467,13.38455
Libanon Snack,52.4562,13.38362
Long,52.45767,13.38439
Becerro,52.44833,13.3849
Inside Asia,52.45467,13.38455
Taverna Ta Dio Aderfia,52.45662,13.38361
Ristorante Casa Nuova,52.45702,13.38673
Urban's Kaffeestube,52.44578,13.39056
Pausini,52.45923,13.38391
Ristobar Lopez,52.44534,13.38559
Piro Espressobar,52.45573,13.3824
Mix,52.462201,13.391903
Sempre,52.45702,13.38673
Maximilian Hafenimbiss,52.454726,13.384517
Bei Radi,52.44582,13.39005
Michelangelo,52.44702,13.40178
Pizza Pazza,52.45994,13.38442
Restaurant und Eiscafe Tiamo,52.44568,13.3842
Ristorante Pizzeria Santa Maria,52.45724,13.38374
Restaurant Split,52.44651,13.40215
Karma Restaurant Berlin,52.44739,13.39689
Café Kaiserhütte,52.44568,13.3842
Gelato Artista,52.455682,13.385723
NORMA,52.45818,13.38257
Asia Food,52.45467,13.38455
Burger Hütte,52.44725,13.38571
Döneria,52.458,13.38394
Chicken House,52.44783,13.38575
Basileus Pizza,52.44718,13.38523
Lase Lounge,52.45909,13.38472
Gourmet Meyman,52.45841,13.38457
Marti Fischrestaurant,52.455099,13.38505
La Piccola Cantina,52.44766,13.38906
The Burger Bar,52.454944,13.384762
Sempre,52.44738,13.39274
Cafe am Berg,52.44766,13.38906
Kinh Bac,52.45467,13.38455
Bistro Taka,52.45486,13.38379
Pier 13,52.45467,13.38455
Diamond Tempelhof,52.45602,13.38362
Curry-Kiste,52.445607,13.3863
Taste Hellas,52.45662,13.38361
Caffe Vero,52.44798,13.3891
Weltmusik-Rahmati,52.4597,13.38241
Ege Gemusekebab,52.45909,13.38472
Remise No. 1,52.44473,13.38569
Bruno,52.45859,13.37827
Tonsai,52.4594,13.38197
Restaurant Arkade,52.45186,13.3787
Cookoon,52.45517,13.41889
La Sanata Lucha,52.453083,13.377721
Hamdibaba Alt-Tempelhof,52.4653,13.38588
Domino's Pizza,52.44358,13.38647
Bistro Bar,52.46025,13.41794
Trattoria Geppetto,52.46249,13.41634
Kneipe Wallenstein,52.4432,13.38335
Balli Döner,52.465947,13.385266
Aristoteles,52.44657,13.37878
Balli Burger,52.46639,13.386
Mariannes Imbiss 2.0,52.44432,13.38576
Romeo's Insel,52.45816,13.37636
Imbiss am Park,52.46383,13.38526
La Sirena,52.4553,13.37466
Marrashan,52.4436,13.38583
Namaste Italia,52.46286,13.3793
Park-Cafe,52.44065,13.39641
La Sambo,52.46502,13.38316
Pizza Stern Berlin,52.46419,13.40037
Muncheese,52.45584,13.38057
Yosi's Ess Station,52.44572,13.3797
Vereinsheim Rixdorfer,52.44364,13.39818
Tower of Siam,52.42268,13.53979
Gaststatte Ebel,52.4214,13.53909
Akis Grillhaus,52.4207,13.53909
Asia Sushi Bar,52.43294,13.53571
MR. Wu Restaurant,52.43221,13.53691
SUBWAY,52.43294,13.53571
Bistro la Petit,52.42983,13.54185
Atthymayaa,52.42233,13.53776
Restaurant Croatia,52.41923,13.54414
China Haus,52.41922,13.53816
Kroatisches Restaurant,52.41923,13.54414
Esswirtschaft,52.43134,13.53259
Olivenbaum,52.43163,13.53475
Mani Mogo,52.43275,13.5323
Azuma,52.43302,13.53696
Rangla Punjab,52.42007,13.5387
Schulz,52.4211,13.53901
Geco Tapas Bar,52.41894,13.54599
Olympia Greek-Food,52.43387,13.53825
Rosticceria San Leone,52.43755,13.55496
Ristorante Villa Romana Berlin,52.43575,13.54824
Venezia,52.43727,13.54482
Meet Saigon,52.43382,13.54032
Suppenkasper,52.43727,13.54482
Currywurst Nr 1,52.43555,13.54199
China-Restaurant Palast,52.43608,13.54341
Athen,52.43494,13.54694
Ristorante Il Porto,52.42515,13.52782
Eat Green,52.43387,13.53825
Maharadscha,52.43584,13.54845
Imbiss Bao Cun,52.43654,13.54404
Bella Italia,52.43811,13.54896
La Leona,52.43575,13.54824
Hong Kong Haus,52.43434,13.54329
Adler Burger,52.43511,13.5424
Gelateria Giulia,52.43755,13.55496
Il Mondo,52.43471,13.54311
Haushaltsauflösungen,52.41377,13.54849
Family Inn,52.41428,13.53773
Cadadia,52.42846,13.52568
Caffe Kamee,52.42949,13.53025
Il Porto,52.41458,13.53164
Delphi,52.41735,13.5297
Da Gatto Nero,52.41735,13.5297
Mia Toscana,52.43843,13.54985
Ibo's Kebup,52.435131,13.54087
Tran Asia,52.43591,13.54324
Pizza Capitol,52.43734,13.54687
Cafe Zara,52.43555,13.54199
Mensa Oase Hu Adlershof,52.42949,13.53025
Herrmanns Eck,52.43602,13.55507
Airleben-Cuisine,52.43382,13.54032
Solti Restaurant,52.54127,13.20019
Die Wampe,52.54222,13.20359
Kümes Chickenhouse,52.5472,13.20144
Steakhaus Plancha II,52.54169,13.19948
Restaurant Mehek,52.5464,13.20291
"Toleranz Café, Bistro und Imbiss",52.54734,13.20133
Omonia Treff,52.54449,13.2043
Falken Backerei & Cafe,52.546039,13.191636
Pizza Max,52.54201,13.20265
Bistro Class,52.54822,13.20066
La Perla,52.54571,13.20085
Cafe' Sofra3,52.54792,13.20147
Pescara,52.54435,13.20397
Il Vagabondo,52.54739,13.19682
Tek Liman,52.54513,13.19967
Grillstation Conti,52.54199,13.20551
Spandau Sushi - China Thai,52.54869,13.20164
Futu Sushi,52.54571,13.20085
Café Spandauer,52.54783,13.20096
Zitadellen Schänke,52.54047,13.21226
Restaurant Emil's at Centrovital Hotel,52.5469,13.20954
The Pizza Club,52.53764,13.18643
The Orient House,52.53812,13.2024
Lebuffet,52.53705,13.20226
Sy Restaurant,52.5379,13.20669
Call A Pizza,52.55153,13.19972
Charlotte,52.53722,13.20228
Ozge Grill,52.53746,13.18725
TeeKult Berlin,52.53991,13.20597
Cafe Lutetia,52.53695,13.20182
Steakhouse Plancha,52.53807,13.18565
Satt und Selig,52.53822,13.20443
Millefiori,52.53805,13.20685
Yummy,52.53792,13.20239
Fadice Bar,52.53859,13.20611
Pizza del Leo,52.55185,13.20986
Gaststätte Spandauer Bock,52.53783,13.2032
Dalmacija-Grill,52.53656,13.19144
Raymons - das Fischrestaurant,52.54634,13.21172
Natureis,52.53868,13.20724
Night and Day,52.5501,13.20066
Soy,52.53805,13.20685
Fisch Frank,52.53645,13.20417
Sultan Sofrasi,52.54622,13.19048
Restaurant 28 Spandau Berlin,52.53827,13.20316
Falken-Eck,52.54762,13.18521
Zur Spitze,52.53657,13.18998
Döner 99,52.53812,13.2024
MR.Croissant Spandau,52.53676,13.20239
Dioklecijan Split,52.55164,13.18443
Pho & More,52.53773,13.20227
Holsteiner Raucherkate,52.53716,13.20346
Eli Eis Eismanufaktur,52.53735,13.20317
Restaurant/Bar Meilenstein,52.5397,13.20601
Restaurant Alt-Spandau,52.53819,13.20225
Macao,52.53835,13.20723
Pizzeria la Familia Spandau,52.54511,13.20759
Mila,52.538625,13.206035
Weinstuben am Kolk,52.53983,13.20654
BURGER KING,52.53749,13.20341
Waffelzimmer Spandau,52.53804,13.20295
Little Roti,52.53827,13.20316
Kochkunst,52.5469,13.20954
Zaim Falafel,52.53801,13.20213
Huyen Quang,52.53661,13.20522
La Bottega,52.53661,13.20473
Trattoria Risposo,52.53873,13.20478
Minaki Sushi&Asia Food,52.53735,13.18775
Victoria Celtic Pub,52.53851,13.20271
Altstadt Cafe,52.53799,13.20505
Grillhaus Anatolien,52.53884,13.19968
Bowl Arena Spandau,52.54952,13.21058
Pizzeria Isola Verde,52.53808,13.20651
Prima Luna,52.53793,13.20293
My Ha,52.53896,13.20605
Mephisto,52.53896,13.20605
Sankt Nikolai Café,52.53876,13.20556
Pizza Hot & Fresh,52.53773,13.20227
Ruspina II,52.53873,13.20478
Pizza Hot & Fresh,52.55104,13.19986
Die Leckerei,52.53691,13.18914
Gut und Böse Café,52.55034,13.18506
Café Hangôver,52.54501,13.20868
Shisha Café Sandmann,52.55171,13.19964
Mevlana Grill,52.54851,13.20851
Altstadt Spandau la Buggatta,52.53603,13.20441
Phuong Dong,52.53661,13.20522
Diyar Simit Evi,52.53887,13.20615
Hasır Spandau,52.53854,13.20682
Trattoria Battista,52.5386,13.20657
Altstadtcafe Spandau,52.53799,13.20505
Kaffee 26,52.53819,13.20309
Beverly Hills Café,52.53913,13.20576
Cubi,52.538577,13.206705
Mangal 24,52.53701,13.20322
Pizza Piccolo Mondo Berlin,52.53764,13.18643
Hai´S Hanoi Bistro,52.53735,13.18775
Fa. Fam,52.53735,13.18775
Ye-Mc,52.53783,13.2032
Ts Homemade Burger,52.53933,13.20523
SUBWAY,52.54272,13.5424
Nordsee,52.54356,13.54238
Eiscafe Promenade,52.54356,13.54238
Eiscafe Promenade,52.544101,13.546136
Syrtaki,52.54835,13.54777
Cocos,52.54289,13.54383
Diego’S Damn Near Delicious Diner,52.54212,13.5439
American Bowl,52.5419,13.54172
Ollis Späti,52.5404,13.54672
Haiky,52.54329,13.54351
Cafè Fuffzn,52.54329,13.54351
Grillo Imbiss,52.543374,13.547566
Marzahner Discotheken GmbH & Co,52.5419,13.54172
Bok and Cocos Marzahn,52.54363,13.54328
Ciao Bella Eastgate,52.54329,13.54351
Immergrün,52.54276,13.54422
Van Lang Restaurant,52.54545,13.55308
King Wok - le Prom,52.5419,13.54172
La Gondola Eiscafé,52.54492,13.54955
BURGER KING,52.54272,13.5424
Mumbai,52.54329,13.54351
Esswirtschaft,52.54498,13.55086
Play Off Berlin,52.53726,13.53815
Cafe Restaurant Regina,52.53656,13.54487
Natürlich Essen Berlin-Brandenburg,52.55353,13.53962
Ristorante BB Paparazzi,52.53605,13.54282
Landhaus Marzahner Krug,52.54346,13.56119
Zur Kleinen Pause,52.5458,13.53717
Burgerme,52.53428,13.55088
BB-Tea For You...,52.533962,13.55088
Marzano,52.55611,13.55849
Sushi For You,52.53427,13.55154
Cafe 4 Landen,52.53545,13.55643
Eiskristal,52.55524,13.55992
Calypso,52.53459,13.56195
Akis Cafe und Bar,52.54987,13.56338
Bistro Castello,52.53671,13.56362
Kokoro,52.53459,13.56195
Restaurant la Plata,52.53428,13.55088
Doy Doy,52.53437,13.55261
Restaurant-Automatencasino,52.55524,13.55992
Grüne Geiß,52.5345,13.55131
Sakura Garten,52.54214,13.56314
Happy Burger Marzahn,52.55775,13.55446
Ari's Diner,52.53437,13.55261
Cafe Krumelkeks,52.53478,13.55169
Polizeikantine Marzahn Dir.6,52.53554,13.5379
Café Gorodok - Russische Spezialitäten,52.54987,13.56338
Madi - Zelt der Sinne,52.575315,13.293836
BURGER KING,52.57848,13.2978
Dubrovnik,52.57698,13.29336
Kimiko-Sushi.De,52.57924,13.30136
Waffelzauber,52.58365,13.28643
Borsig-B,52.58364,13.28737
Burgercity Scharnweberstraße,52.56775,13.31133
Restaurant Aventuras,52.5807,13.3024
Toscana,52.56798,13.31258
Restaurant Dalmacija,52.57235,13.30842
SV Reinickendorf 1896 E. V.,52.5715,13.28513
Atma - Indische Küche,52.58339,13.30135
Café Casino im Tegel-Forum,52.57914,13.3086
Makedonija Grill,52.5837,13.3009
Burgerzimmer XIII,52.56775,13.31133
Asado,52.56821,13.31019
Zadar Restaurant,52.5837,13.3009
Trattoria Monticchiello,52.58276,13.2901
Cafe Caliente,52.56775,13.31133
Café Titanic,52.57155,13.30894
L'Acordo,52.58311,13.30049
Wilde Maus Berlin,52.5831,13.29762
Polo' S,52.5809,13.3036
SUBWAY,52.58412,13.28739
Café Animor,52.58394,13.28675
McDonald's,52.58394,13.28675
Doner Factory,52.58394,13.28675
Bistro Zam Zam,52.57923,13.31714
Zum Krug,52.57098,13.31553
Asador,52.58668,13.2852
Thai Nippon Bar,52.58394,13.28675
Mexico City / la Rosa Quattro,52.58394,13.28675
Holiday Land Ab-Last Minute Holiday,52.58394,13.28675
Pizza-Express,52.587,13.28525
New Delhi Indian Restaurant Berlin,52.58394,13.28675
Imbiss-König,52.5701,13.31296
Pizza Azuri,52.56782,13.31283
I-Ke-Su,52.58394,13.28675
Zum Feuchten Grafen,52.56993,13.31387
Segafredo,52.585366,13.286524
Don Giuseppe,52.5873,13.28566
Zur Hütte,52.58702,13.30549
Dicke Paula,52.58668,13.2852
Fantasia del Gelato Tegel,52.584566,13.286112
Seeteufel,52.58394,13.28675
Delishes Pfannkuchen Cafe,52.58721,13.28574
Orio Falafel,52.58467,13.286006
Grillkönig,52.57119,13.31285
Backe Backe Pizza,52.587,13.28525
Trattoria da Ciro,52.58402,13.30265
Ristorante Pianoforte,52.58721,13.28574
Ziegenkaserei & Wiesencafe Karolinenhof,52.56933,13.3195
Restaurant Split,52.58637,13.28729
Viet Express,52.58394,13.28675
Dos Pescados,52.58394,13.28675
Ganges Eichborndamm 80,52.57529,13.31486
Ristorante Pizzeria Casamaßima,52.56705,13.31496
Asia Snack,52.58394,13.28675
Ristorante Giannini,52.58394,13.28675
Grill Imbiss Stube,52.57501,13.31437
Asiagourmet,52.585871,13.286938
Rio Falafel,52.58394,13.28675
Stella del Köp,52.45598,13.55104
Amaranth,52.45737,13.54012
P&R Personal -,52.4604,13.54624
Der Waldkater,52.4604,13.54624
Crepes Fez,52.460876,13.548617
Finnhutten am Badesee,52.46026,13.54013
Alfons Im FEZ,52.46091,13.5489
Fritten Fritze,52.46095,13.54887
Café an der Spree,52.45249,13.53402
Steakhaus Mediterran,52.45311,13.53859
Anna Kim,52.46002,13.53597
Lekker.Berlin,52.44988,13.53556
Miss Sophie's Planet,52.45987,13.52449
Call A Pizza,52.45228,13.53135
Burgerme,52.45955,13.52443
Glashaus,52.45319,13.56875
Sportcasino abc 08,52.44323,13.55302
Blattlaus Adlershof,52.44139,13.5372
Alte Forno Sonnenallee,52.44283,13.53544
Yezda's Diner,52.45421,13.56839
Masala,52.45993,13.52966
Artemis,52.45312,13.52453
Cuccis,52.44413,13.53079
Manifattura del Gusto,52.45998,13.52914
Kranhaus Cafe,52.45426,13.52878
Villino Trattoria,52.44628,13.56228
Döner & Asia Altintop,52.45889,13.52593
Gaststaette zum Hauptmann von Coepenick,52.44566,13.56314
Holz Kohlen Grill,52.44283,13.53544
Jinnah House,52.44628,13.56228
Mahlzeit,52.45889,13.52593
Gemüse Kebap,52.45885,13.52675
Olympia Greek Food,52.451982,13.52311
Kyoto - Sushi & More,52.51285,13.58878
Bharat,52.52174,13.59088
Fisch- U. Meeresspezialitäten,52.52144,13.58712
Eiscafe Mandarino,52.5208,13.59066
Paparazzi 63,52.52164,13.59165
Asia Snack,52.52144,13.58712
Klabautermann,52.520394,13.587841
Gasthaus zum Ulrich,52.50576,13.58827
Zur S-Bahn Kaulsdorf,52.51245,13.58793
Nante Kaulsdorf,52.52086,13.59132
Mr. Hung,52.52114,13.58985
Mac's Bistro,52.52144,13.58712
McKebab,52.51535,13.58247
Flamingo-Bier,52.523339,13.588293
BURGER KING,52.5054,13.60707
Domino's Pizza,52.51983,13.61681
Trattoria Pane E Vino,52.52001,13.61758
Cafe Nr. 30,52.517,13.61535
Hallo Pizza!,52.51983,13.61681
Herkules II,52.51311,13.612
Mahlsdorfer Wappen,52.51182,13.61196
Daddys Eiscafe,52.5093,13.61342
Asia Restaurant Family,52.50506,13.58205
Döner Haus,52.50469,13.58875
La Stalla,52.50641,13.61247
Amigos-Steakhaus,52.5031,13.5848
Thai Sushi,52.51383,13.61287
Vietnam Today,52.51284,13.61205
Bierstube Feldrain,52.52769,13.58785
Olympia Eck,52.51191,13.24077
Restaurant Epavlis,52.51623,13.25449
Beef Grill Club,52.51599,13.24791
Eis Emporio,52.52085,13.25569
Westend Grill,52.51593,13.26065
Stadionterrassen,52.51177,13.23929
Westend-Klause,52.51681,13.2595
Il Cardinale,52.51657,13.25982
Der Balken,52.52105,13.25602
Sommerbad Olympiastadion Snackpoint,52.515952,13.239036
Würstl - Stand,52.50792,13.25837
Cafe K,52.50985,13.25531
Rafih,52.507389,13.257128
Sylvia Amoruso Italienisches,52.51685,13.26164
Tiroler Stuben Berlin,52.50618,13.22822
Berliner Waldbuehne,52.51318,13.22989
Mischau,52.52774,13.24351
Merz Catering,52.52708,13.24669
Rasas (Westend),52.51224,13.26399
Lin's Mandarin,52.5205,13.2652
Ristorante Piccolo Mondo,52.51229,13.26802
Westend Pinte,52.51156,13.26928
Restaurant Mahanakhon,52.51078,13.2706
Reitercasino Pichelsberg,52.51098,13.22977
Amplio,52.51139,13.26956
Bistro,52.51078,13.2706
Salumeria Via Vai,52.51229,13.26802
Tutti Gusti,52.50884,13.26811
Thai Food Orchidee,52.51341,13.26458
Restaurant Marron,52.51031,13.26813
M.Looi Sushi Bar,52.51149,13.26837
Café Konditorei M&N Group Inh. Mojgan Moazazi Malkanfar,52.51238,13.26558
Pichelsberger Krug,52.50942,13.22902
Cafe- Ein Stuck Weit Zauber,52.51238,13.26558
Cafe Thiel,52.51149,13.26837
Anna's To Go,52.51394,13.26419
La Victoria,52.51078,13.2706
Pizza Pasta da Matteo,52.52057,13.26753
Hofgarten,52.39542,13.44284
Inh Esthea Wo,52.40129,13.45589
Medoc,52.39903,13.44158
Edelweiß,52.39876,13.44213
Center Grill,52.40097,13.44064
Haus Belger - Hotel Restaurant Biergarten,52.39876,13.44213
Trattoria Aversa,52.39903,13.44158
Loni's Gartengrill,52.4025,13.46008
Noel's Bar,52.39941,13.44137
Dieters Stimmungstheke & Herz As Catering,52.40503,13.44299
Inh. Esthea Wolf,52.40753,13.44127
Zum Ponyhof,52.39535,13.42774
Tomasa Landhaus,52.60055,13.30288
Kimiko Berlin,52.60848,13.29394
Do PI sa,52.59957,13.30163
Kalles Späti,52.61379,13.30591
Imbiss Schmeckt,52.59801,13.29804
Tornero,52.59706,13.29605
Pizzeria Ti Amo,52.59929,13.30098
Flamingo,52.61598,13.30705
Stampedo,52.60652,13.31925
Pascha,52.61227,13.31591
Hommous & Khobez Traditional and Authentic Lebanese Food,52.60465,13.32153
Shin Shin,52.61227,13.31591
Ristorante Caruso,52.61184,13.31789
Kaimen,52.61643,13.30687
China Garden,52.61474,13.29983
Anna E Angelo,52.61723,13.30625
China Restaurant Schatzkammer,52.61827,13.30613
Pocoloco,52.61496,13.29947
Restorant Prikazkite -Märchen Restaurant,52.61496,13.29947
Kleen's,52.59156,13.29139
Marian's Imbiss,52.595649,13.290217
Pizza Max,52.61396,13.31606
Ristorante San Giorgio,52.60622,13.31805
Raj Restaurant,52.57678,13.58269
Restaurante Aroma,52.57678,13.58269
Call A Pizza,52.57475,13.57354
Landgasthaus Eiche,52.56347,13.58941
Mehrower Hof,52.57027,13.61609
Zum Brandenburger,52.57479,13.57474
Cafe Lehmsofa,52.57011,13.53692
Pizza Piccante,52.56931,13.53908
Falkenberger Bistro,52.56931,13.53908
Arkaden Bistro,52.56979,13.56687
Pizza Planet,52.56314,13.55407
Pizza Planet Hohenschönhausen 030/99271600,52.56411,13.5509
Bsr Recyclinghof Nordring,52.56202,13.54966
Gartenlaube,52.58335,13.52896
The Sixties Diner,52.4234,13.39578
Kentucky Fried Chicken,52.42685,13.3936
Maximilian,52.42656,13.394
Restaurant Poseidon,52.41973,13.40155
Extra Wurscht,52.42656,13.394
Cancun,52.42553,13.39454
Viet Cocos,52.425886,13.391999
Mustang,52.42608,13.39342
Mmc Steinofen Pizza & Pasta,52.42385,13.39645
Fabulous Route 66 Dine,52.4234,13.39578
KFC,52.426853,13.393633
Restaurant Adlermuhle,52.42461,13.39458
Tribünenhaus Rennbahn Mariendorf,52.42593,13.39246
Call A Pizza,52.41657,13.3996
Tasty Beef,52.41608,13.40644
Nuovo Mario Berlin Sud,52.41705,13.39931
Das Teehaus Mariendorf,52.431138,13.391364
Bistro No.13,52.41614,13.40443
Il Falco,52.41866,13.39918
Lucky-Sushi,52.4184,13.3986
Bistro Taka,52.4184,13.3986
Apne,52.41614,13.40443
Maximilian Imbiss,52.41572,13.40688
Mtm Restaurant,52.41594,13.40073
Berliner Kindl Stuben,52.41615,13.39987
Stall-Casino,52.431138,13.391364
Bistro Ciao Pizza,52.41538,13.40564
Centro Italia,52.42808,13.37739
Vereinsheim Heimaterde,52.42746,13.41656
City Casino,52.43693,13.38885
New Ocean,52.4361,13.38929
Motel Blue Süd,52.43693,13.38885
Pepito,52.4293,13.38031
My Friends,52.41022,13.40324
Restaurant International,52.42148,13.41465
Rioalba Steak House,52.414,13.3999
Il Ponte,52.42654,13.37381
Restaurant Pußta Grill,52.42654,13.37381
Meteora,52.41155,13.4025
Il Forno,52.41423,13.4008
Lamira Mexikanisches Steakhaus,52.414,13.3999
Kotti Dang,52.412705,13.395439
Mekong Deli,52.41331,13.40147
Heike's Holzkohlengrill,52.41315,13.40157
China-Haus,52.41331,13.40147
Stella Marina,52.41388,13.40189
Italo-Bistro,52.43166,13.41319
Zur Jägerklause,52.59704,13.45353
Zum Eisernen Gustav,52.60776,13.43454
Burger Savanna,52.59956,13.43216
Restaurant Syrtaki,52.59265,13.45461
Kaffeehaus Blankenburg,52.59294,13.45719
Kantine Kleine Auszeit,52.59339,13.45155
Fu Duo,52.61276,13.43067
Zum Drachen,52.61276,13.43067
Okaze Sushi,52.59997,13.43177
Eisbussi Diele Französisch Buchholz,52.6078,13.4256
67 Sixtyseven,52.59746,13.43028
Eisspatz,52.60427,13.43187
Herkules,52.6073,13.42571
Prime Kebab,52.59346,13.45305
Appartementvermietung Ebel,52.6023,13.61722
Gaststatte Landhaus Elise,52.63536,13.37734
Kochschule Schildow,52.63738,13.37581
China Perle,52.60732,13.48699
Domino's Pizza,52.60984,13.48043
Fontana di Trevi,52.61793,13.48684
Gaststätte Zwiebeltöpfchen,52.61717,13.48888
Angelos Cocktail Bar & Bistro,52.60766,13.47961
India Haus,52.61717,13.48888
Das Marchenhafte Ribhouse,52.61515,13.48472
das Rosinchen,52.61716,13.4907
La Riva,52.60134,13.51939
Lindenberger Krug,52.60134,13.51939
Da Ilja,52.61655,13.48602
Bilderstübchen,52.60766,13.47961
Zeus,52.61793,13.48684
Bistro Antalya,52.61741,13.49011
Rehwiese,52.42393,13.19847
Call A Pizza,52.43057,13.19517
Pizzeria No. 1,52.43064,13.19363
Le Petit Four Berlin,52.43032,13.19343
Restaurant Fino,52.4302,13.19476
Thai Hang Bistro,52.43064,13.19363
Adria Grill,52.42616,13.20902
Tai Pan,52.42432,13.20591
Speisewerkstatt,52.43084,13.19534
Café Tayas,52.43011,13.19569
Linh Anh,52.42686,13.21071
Easy Rider,52.432889,13.19095
Spice Club,52.43037,13.21352
Clubrestaurant am Wannsee,52.4288,13.18258
Lorettas Almhuette,52.41999,13.17589
Rasam Indian Restaurant,52.43037,13.21352
Wirthaus an der Rehwiese,52.43428,13.20349
Pikilia,52.43383,13.21128
La Foresta Incantata,52.42712,13.21777
BURGER KING,52.43431,13.19087
Spinner-Brucke,52.43333,13.19098
La Serra,52.42712,13.21777
Trattoria Sole di Sicilia,52.43429,13.19856
Wannsee Hof,52.42127,13.17879
Landhaus Söhnel,52.41999,13.17589
Trattoria del Lago,52.42127,13.17879
Paolella,52.41264,13.21243
Corsini,52.42154,13.17931
Cafe Scholz,52.43052,13.21769
Fratelli,52.511681,13.200868
Buenos Aires,52.51805,13.19755
Vinh Loc,52.51793,13.19751
Steckenpferd,52.51043,13.19961
Restaurant Stara Kuca,52.51194,13.19795
Kleines Café Spandau,52.51581,13.19711
Gaststatte G7,52.52025,13.18785
Die Kichererbse,52.52118,13.19665
Asia-Haus,52.52314,13.19809
Jan's Gelateria,52.52113,13.19338
Violett Lounge,52.52092,13.19704
Zur Traube,52.52299,13.19747
Wunderbar,52.52321,13.19861
La Amistad,52.52269,13.1966
Arriba Mexiko,52.52347,13.19782
Shawarma al Bascha,52.52347,13.19782
Sandrrella,52.52328,13.19905
KFC,52.51646,13.18477
Ketchup & Fries,52.51053,13.20846
Blauwasser Cafe Restaurant,52.5098,13.18849
Yachthafen Captain's Inn,52.509896,13.211743
Il Passetto,52.50755,13.19764
Ketchup 35,52.51053,13.20846
Nostalgija,52.50949,13.20876
La Cena,52.52197,13.19021
Ristorante Pizzeria Romana,52.52815,13.19471
Farid Grill,52.51707,13.17963
Croatia-Eck,52.52481,13.19707
Zur Sorgenpause,52.52413,13.20155
Nascha Asia Markt Thai Imbiss,52.52431,13.19767
Barfly,52.52412,13.19336
Solo Pizza,52.52441,13.19345
Pizza - Bar,52.52443,13.19724
Grill-4 You,52.5277,13.19595
Salt & Pepper,52.52481,13.19363
Shankara,52.52873,13.19498
Casino am Ziegelhof,52.52902,13.19869
Restaurant Viettonic,52.52757,13.19556
Amadeus,52.52752,13.20793
Bricks,52.52558,13.19435
Ruby's Café,52.52525,13.19502
Bandir Kebap,52.52873,13.19498
Roti,52.52902,13.19869
Feldküche,52.529,13.19616
Hafenrestaurant Blau Rot,52.50329,13.18769
Trattoria la Posta,52.50927,13.18106
Sushi Yana Spandau,52.52546,13.19716
Kö-Reloaded,52.52491,13.19648
Shawarma One Spandau,52.52461,13.19717
Zamazingo,52.52535,13.19721
Solo Pizza,52.52481,13.19363
Eiscafe Sara,52.52612,13.19636
Havelterrrassen,52.52631,13.20085
Casino der Vwg,52.50474,13.21096
Kleine Badewiese,52.48346,13.18532
Waldhaus an der Havelchaussee,52.47953,13.19808
Cappuccino,52.4893,13.18069
Hannes Cafe,52.48452,13.18155
Kapitän's Kajüte,52.48753,13.18236
Restaurant Havelwelle,52.47547,13.18243
Osteria da Francesco,52.48695,13.18232
Perfect Cook,52.49166,13.18017
"Italienisches Restaurant la Casetta, Berlin",52.47593,13.18146
Bdb Cappuccino Spandau,52.48723,13.18214
Schahjan,52.49166,13.18017
Touki Restaurant im Wirtshaus Gatow,52.48695,13.18232
Hasi's,52.42977,13.33318
Dönerwache,52.428752,13.347017
Meraline,52.43014,13.33488
Buchhandlung Friebe mit Café,52.42971,13.33292
Feng Yuan,52.43041,13.33443
Frobenstübl,52.42632,13.3351
Taverna Levkos Pyrgos,52.41659,13.33734
Dalmacija Grill,52.41569,13.34745
Marco Polo,52.42939,13.35183
Constantino,52.42162,13.33421
Johnny Sushi,52.43041,13.33443
Dal Conte,52.43165,13.33812
Marc Clement,52.42651,13.3351
Mangali,52.41689,13.33907
Basticeria im TV Preußen,52.43241,13.35384
Pview,52.43143,13.33776
Ristorante Poesia,52.41921,13.34301
Det Is Knorke Alt-Berliner Currywurst-Variationen,52.43019,13.33333
Ristorante la Fontaine,52.41671,13.33866
Pizza Planet,52.43278,13.33919
Il Pomodorino,52.41671,13.33866
Pizza Bulls,52.43278,13.33919
Friedhard S Lichterfelde,52.42813,13.32471
Ristorante Colombina,52.41336,13.36283
Mini-Pizza-Ciao,52.41336,13.36283
Uli's Bar Cafe,52.4143,13.36363
Eiscafè Europa,52.41336,13.36283
Happy Buddha,52.41377,13.3639
Sushi For You,52.42312,13.37099
Bardolino,52.43387,13.3592
Mc Curry,52.43591,13.3469
Balli Döner,52.42801,13.3269
Lio Gelato,52.42847,13.32736
Cafe Rosenduft,52.42941,13.32677
Fraeulein Juli,52.4275,13.33107
Piroschka,52.42878,13.3252
Dua do Restaurant,52.43591,13.3469
Zum Bistro,52.43427,13.35829
Bio Company,52.42747,13.32869
Dai Gemüse Kebap,52.43667,13.34565
Asian Deli,52.42925,13.32968
Mobil Point Berlin Lankwitz,52.43591,13.3469
Adria Grill,52.43386,13.34194
La Dolce Vita,52.42872,13.33024
Ahiah,52.43374,13.34171
Surf Inn,52.43672,13.34606
Ferdinand 34,52.42784,13.32842
Mia Gelateria Lichterfelde,52.42847,13.32736
Bahnhofswirtschaft,52.42941,13.32677
Kebe-Living,52.42638,13.33183
Nostos,52.42477,13.32892
Restaurant Kastanie,52.42404,13.33062
Tai-Lee,52.41317,13.35371
Zum Hufeisen,52.41212,13.34646
Agostino,52.42434,13.33086
Cantina Verde,52.41389,13.33141
Piccola Pizzeria,52.4126,13.34959
Mon Càri,52.42653,13.32676
Nammi,52.42653,13.32676
Carpe Diem,52.41156,13.34229
Gemüse Kebap - das Original,52.43476,13.34262
Bücherzimmer Café,52.43387,13.3592
Alnatura,52.4282,13.3256
H Thraka. Original Griechischen Grill,52.42872,13.33024
Yogi-Haus,52.429,13.33015
Döner Kebap Haus,52.42957,13.33109
Hansi,52.42628,13.32753
My Asia Kuche,52.42764,13.32493
Sultan,52.43571,13.34614
Pizzaliebe,52.42885,13.32793
Mac's Kebap,52.42863,13.32869
Döneria,52.43544,13.34396
Schmidts Imbiss,52.42858,13.32469
Seven Grill bei Abi,52.41433,13.36435
Pizza Max,52.42042,13.36932
Büllys Türckengrillstammplatzortohnek,52.42822,13.32703
Hauptstadt Gastronomieservice,52.40024,13.53718
Zum Bohnsdorfer Eck,52.39966,13.54615
Saigon China Imbiss,52.399766,13.542343
Siedlerkrug,52.39934,13.53923
Doppeldecker,52.39778,13.53511
Aviatik,52.39781,13.53704
Fero's Pizzeria,52.39778,13.53511
Pizzeria da Latto,52.4035,13.54229
Bistro-Varna,52.40404,13.55976
La Tettoia,52.38905,13.56811
Pizzeria Monello,52.4035,13.54229
Luise,52.45786,13.29133
Kantine im Julius-Kuhn-Institut,52.45813,13.29942
"Esskultur, Restaurant und Beduinenzelt",52.45785,13.29131
Villa Rosa,52.45864,13.30271
Esskultur,52.45585,13.29289
Asia Snack Dahlem,52.45787,13.29278
Piaggio,52.45784,13.29084
Fabecks,52.45053,13.29574
Really Good Life,52.45784,13.29084
Papillon,52.45695,13.29344
Das Cafe in der Gartenakademie,52.45606,13.29943
Eis Zeit,52.45828,13.29135
Botanischer Garten,52.45192,13.31035
Loch Ness Scottish Pub & Whisky Bar,52.44681,13.31116
Taverna Kretamos,52.44678,13.30632
Alter Krug,52.45789,13.28818
Englers Restaurant,52.45911,13.30442
Pesetas,52.44886,13.30329
La Favorita,52.44863,13.29086
Non la,52.46011,13.30945
Coffee Station,52.449588,13.285762
Hee Lam Mun,52.45994,13.31219
Cafe Kauderwelsch,52.45103,13.28802
Chirag,52.44957,13.30272
Veggie No. 1 - die Grüne Mensa,52.44694,13.28327
Ristorante Galileo,52.45292,13.28804
Tre-Stelle,52.44524,13.29345
Landhaus Botanischer Garten,52.45229,13.311127
Landhaus Botanischer Garten,52.45192,13.31035
Erdal's Feinkost,52.44852,13.30517
Cafeteria Fu Koserstraße,52.46146,13.29446
San Martin,52.44625,13.29354
Coffee Cross,52.45316,13.28652
Il Buchetto,52.4509,13.31022
Mensa Fu Pharmazie,52.4588,13.30601
Mensa Fu 2,52.45292,13.28804
Die Oesteria,52.44852,13.30517
Qwados,52.44562,13.29468
La Mira,52.44524,13.29345
Lauter Eis,52.44854,13.30639
Bestofkebap,52.45793,13.28959
Miss Wu,52.45904,13.28298
Silphion,52.44678,13.30632
Cafe Kauderwelsch,52.45425,13.28842
Reinelts Weinstube,52.44584,13.30418
Surprise,52.44522,13.30269
Kawa,52.44712,13.30609
Mundgerecht,52.46148,13.31183
Jung Bluth,52.46041,13.31734
Dokmai,52.46024,13.31755
Ristorante Matera,52.45244,13.31988
Con Co,52.45415,13.31716
Romana,52.44308,13.28553
Madloba Ethno,52.44279,13.29783
Goodies,52.45601,13.32041
Tele Pizza,52.44722,13.31504
S1 Burger,52.44327,13.29465
Sombrero,52.45565,13.31727
Eierschale Dahlem,52.46441,13.29753
Peter Pane Berlin Schloß,52.45731,13.320598
La Fattoria,52.45851,13.31695
Amar,52.45405,13.31684
Indisches Restaurant Avtaar,52.46005,13.317
M&S Gemüsekebap,52.44899,13.31564
Asaki-Sushi,52.45368,13.31693
Felino,52.45244,13.31988
Cafe Nepomuk,52.45793,13.3184
Rothenburg-Eck,52.45918,13.31949
Gonzales,52.44788,13.31562
Indian Dream,52.44625,13.31564
General Post Office,52.46117,13.31825
Nirwana,52.45415,13.31716
La Castellana,52.45565,13.31727
Marinella,52.4446,13.29171
Schweizerweine,52.44289,13.30603
Hofcafe Betzhorn,52.45765,13.27942
Merida,52.4444,13.29463
Litehouse,52.44228,13.2955
SUBWAY,52.44258,13.29385
Restaurant Brentano,52.46617,13.30949
Siam Park,52.46734,13.30837
Guo Guo Xiang,52.46734,13.30837
Coffreez,52.44327,13.29465
Nea Olympia,52.44376,13.28944
Vecchio Mulino,52.44488,13.29497
House of Mmi,52.451234,13.281803
Santa Cafe,52.46708,13.30781
Il Tramonto,52.44671,13.31501
Curryimbiss U-Bhf Breitenbachplatz,52.4669,13.3086
Kristall 2 Restaurant,52.44302,13.29701
Ham-Restaurant Dahlem,52.45943,13.28099
Maria & Josef,52.44359,13.29568
Friedls Cafe,52.44258,13.31173
Bao,52.44608,13.31565
Macedonia,52.44336,13.2952
Noasushi,52.44554,13.31571
Mahal Express,52.45742,13.32086
Madre's,52.46005,13.317
Domino's Pizza,52.51515,13.49828
Ormado Kaffeehaus,52.51023,13.50133
Don Giovanni,52.51423,13.49339
Eiscafe Winkels,52.51442,13.49506
Isy's Dönerpoint,52.51174,13.49726
Zeitentraumer,52.51393,13.49995
Balkan Bar,52.51253,13.49802
Grillhaus,52.51228,13.49197
45 Cocktailbar Lichtenberg,52.51175,13.49783
Alte Mensa,52.51289,13.49259
Kebap House,52.51235,13.49797
City Food,52.51239,13.48999
NO Name Shisha & Cocktail,52.51175,13.49783
Pizza 1889,52.51239,13.48999
Sana Klinikum Lichtenberg Kantine,52.51402,13.49643
Maximilian,52.51235,13.49797
Asia Imbiss - Asian Duc Anh,52.51208,13.49845
Cäsars Lieferservice,52.5111,13.50299
La Cafeteria,52.51532,13.4912
Selin Grill Haus,52.51471,13.49814
Pizza Uno,52.51174,13.49726
Schlemmergrill Rathke,52.51172,13.49838
Taiko Sushi,52.52326,13.48943
Cafe Vernunft,52.514601,13.486407
Zum Gyorgy,52.52297,13.48799
Cuccis,52.50945,13.49748
Lavendel Viet,52.50978,13.49837
Ursula Kierzek,52.50917,13.49798
Pizza Planet Lichtenberg,52.50557,13.50915
COCO'S,52.50869,13.49729
Zum Happen,52.50826,13.49704
Centies,52.50902,13.49795
Pizza Max,52.50775,13.49732
Asia Food Anh Minh,52.51251,13.48888
Castello Bistro,52.51319,13.48208
Il Mondo,52.51446,13.48186
Ristorante Rossini,52.51319,13.48208
Rossini IV,52.51335,13.48194
Pizzeria Ledi,52.50855,13.49721
Claire,52.52182,13.48523
Eis Kaffee,52.50792,13.49773
Salsarestaurant,52.50812,13.49696
Salsa,52.50812,13.49696
Epirus,52.52146,13.48692
Avci Döner,52.50611,13.49619
SUBWAY,52.51385,13.47547
Steak House Giovanni 1978,52.510015,13.517908
Restaurant Yuumi,52.5016,13.49091
Restaurant Jelanger Jelieber,52.50382,13.48184
"Coffee Fellows - Kaffee, Bagels, Fruhstuck",52.514048,13.475887
Madeleine und der Seemann,52.50431,13.47983
Pink Elephant,52.51488,13.47382
Duc Anh Quan,52.52674,13.48951
Domino's Pizza,52.50478,13.49563
Thanh Koch,52.52656,13.49834
Falafel Aladdin,52.51524,13.47334
Curry Piraten,52.51488,13.47382
Aastha,52.51695,13.47914
Coffee Fellows,52.51556,13.48061
An dem,52.51717,13.47979
Pizza Bistro,52.51691,13.47949
Second Bäck Meets Cookomania,52.51558,13.47311
Dong Xuan Quan Restaurant,52.527826,13.490358
Gasthaus Parkblick,52.51674,13.47825
Lang van,52.52431,13.48085
Squash-House,52.5242,13.4862
Restaurant Holi's,52.50447,13.49738
Ristorante Il Bufalo,52.50097,13.49762
Ristorante Fratelli Tre,52.510015,13.517908
Bamboo,52.51347,13.51794
Märkische Aue,52.50542,13.51455
U Bahn Quelle,52.50666,13.51259
Asia Euro Bistro Tiger,52.50716,13.51242
Restaurant Georghof,52.51137,13.47528
Heisser Wolf,52.51385,13.47547
Restaurant Reichardt's,52.51418,13.47285
Cafe im Schilf,52.50382,13.48184
Baran Grill,52.514044,13.474004
Gut Hesterberg,52.51398,13.47412
Nordsee,52.51398,13.47412
Thai Snack,52.51359,13.47363
Gaststätte zum Igel,52.51202,13.47523
Troja Grill am Mkc Center,52.51228,13.47786
Langnese Happiness Station,52.51398,13.47412
Bistro Kristall,52.51628,13.47893
Hösels Fleischerimbiss,52.52017,13.47922
Thang Long,52.51398,13.47412
Bánh Mì Patê,52.52674,13.48951
Viet Pho,52.52674,13.48951
Center Grill,52.51369,13.47271
India Spice,52.50398,13.4812
Riga's Pizza Box,52.51455,13.47411
Pizza Toscana,52.5009,13.49406
Vitale Großstadtmäuse,52.50177,13.50249
Der Natürliche Geschmack Vietnams,52.51605,13.48132
Buffet der Saison,52.51399,13.47706
Feuer & Flamme FA Klaus,52.63222,13.2981
Leimers Kunst & Kuche,52.63268,13.29232
Picadilly Cafe und Teehaus,52.63326,13.29043
Restaurant Adriatic,52.63367,13.29412
Domino's Pizza,52.62992,13.31081
Ristorante Brescia,52.63144,13.2899
Restaurant Rabennest Frohnau,52.6432,13.30048
Lua Restaurant,52.63265,13.28925
Hallo Pizza!,52.62992,13.31081
El Boyero,52.63215,13.31084
Pizzaiolo,52.63265,13.28925
Pantalone,52.63311,13.28858
Piazza Italiana,52.628751,13.311136
Kaffeehaus Zeltinger,52.63349,13.29005
Da Michelino,52.63229,13.31085
Mandagoras,52.625964,13.29158
Greenhouse California,52.63084,13.31045
King's Snack,52.6326,13.2889
Franco Faldon Speiseeis,52.632,13.28972
Cafe Malin,52.63257,13.31007
Manni Restaurant,52.64268,13.30242
Sakura Sushi-Restaurant,52.63281,13.3098
Jasnoor,52.62342,13.30233
Bocadito,52.628593,13.27726
Ristorante Landhaus am Poloplatz,52.64495,13.28834
Glienicker Kaffeehaus,52.63139,13.31735
Pegasus,52.59693,13.5573
Restaurant & Pension Lindner,52.60383,13.52413
Restaurant zum Speicher,52.63583,13.49975
Mein Quartier,52.63853,13.49044
Akcan Döner,52.63727,13.49232
Son Asia Spezialitäten,52.63505,13.49624
Bekir Akcan,52.63466,13.49582
Best Döner Haus,52.63714,13.49239
Pizza Planet,52.62593,13.49614
Fon Star,52.64327,13.50176
Schweizer Wein Kultur,52.63666,13.50496
Café Max,52.6274,13.50163
Sana Rosa,52.64327,13.50176
Kaffeehaus Madlen im Cafe Max,52.6274,13.50163
Cabslam - California Breakfast Slam,52.48324,13.44672
Eins44,52.48503,13.44012
Bar am Ufer,52.48122,13.4526
Mom's Creation,52.48891,13.45365
W Pizza,52.48683,13.43968
Venue,52.4842,13.43953
Pecados,52.48025,13.44351
Comedy Café Berlin,52.48017,13.44681
Snack Baalbaki,52.48596,13.44745
Quick Burger,52.48555,13.44825
Hatay Imbiss,52.48869,13.45398
Asia Long van,52.48003,13.44299
Madame Zucker,52.48354,13.44438
Chinapfanne und Thai Kueche,52.48003,13.44299
Classic - Finest Burger & Pizza,52.48252,13.44149
Erika & Hilde,52.48562,13.4423
Eins Kantine Neuklln,52.48503,13.44012
HOM,52.48354,13.44438
On Egin,52.48261,13.44112
Sahara Imbiss,52.48328,13.44201
Kalaja Grillhaus,52.48229,13.4407
Keleşoğlu Café,52.48223,13.44352
Kahramane Lounge,52.481783,13.452728
Cantinalou,52.48261,13.44112
Begur,52.4807,13.45191
Caffeggiando,52.48063,13.43965
Funkloch,52.48629,13.44599
Grill Haus,52.48632,13.44675
Fishtank Cafe,52.48385,13.44758
Crazy Bastar Sauce,52.48359,13.44076
Stella,52.48339,13.44116
Nah am Wasser Gebaut,52.48506,13.44509
Mmaah,52.48385,13.44758
Das Tier,52.48483,13.43766
Il Kino,52.49163,13.43303
Babu Restaurant,52.47821,13.44806
Restaurant Cafe Rix,52.47698,13.43921
Capperi,52.49099,13.43529
Restaurant Enzo,52.48129,13.43892
Dr. To's,52.48601,13.43503
Greens Cafe,52.48462,13.43808
Social Coffee,52.48346,13.43605
Tisk Speisekneipe,52.48017,13.43245
La Maison Bleue,52.49017,13.4345
Simbur Fruhstuckshaus und Burger,52.47782,13.43811
Wonder Waffel Neukolln,52.48046,13.43513
Al Hanan,52.47954,13.44399
Sorrel,52.49015,13.43392
Sauvage Paleothek,52.48987,13.43345
Rau & Herzlich,52.49322,13.43698
Babbo Bar,52.48188,13.43685
Dots,52.48649,13.4347
Prachtwerk,52.47906,13.43881
Rixbox,52.47885,13.43806
O.A.K.,52.48382,13.43215
Knodelwirtschaft,52.48666,13.43945
Chutnify,52.48987,13.43345
Hindi Indische Restaurant,52.48918,13.45141
Mae Charoen,52.47954,13.44399
Das Gift,52.48411,13.43232
Nathanja und Heinrich,52.48739,13.43683
Kalle Klein,52.48952,13.44047
Follerei,52.48752,13.43749
Pi-Love,52.48076,13.43507
City Chicken,52.48487,13.43415
Café Botanico,52.47721,13.44113
Bichou,52.48251,13.43635
Treptower Klause,52.49275,13.44517
Imren Grill,52.48206,13.43393
Jaja,52.48422,13.43316
Marin Fisch und Fleisch Restaurant,52.47723,13.45941
Asia Snack,52.49125,13.45778
San Mendoza,52.49125,13.45778
Fleischerei Uwe Proske,52.48943,13.44991
Neue Republik Reger,52.49034,13.44908
Gaststätte zur Guten Laune,52.48848,13.45432
Il Sogno,52.49058,13.44807
Ristorante Dell' Arte,52.48893,13.45156
Elsenstein,52.49226,13.4579
Bar&Pizzeria da Gelo,52.49199,13.45859
La Grappa,52.48088,13.43611
Tell-Stübchen,52.48693,13.43246
Döner Rix,52.476761,13.438554
Oz Samsun Restaurant,52.48143,13.43773
Al Pasha,52.48367,13.43658
Holy Coffee Berlin,52.4798,13.44346
Snaubar,52.48223,13.43854
Zum Fetten Finken,52.48217,13.43301
Al Zawak,52.47761,13.43875
Lupus,52.49015,13.43392
Damiana,52.4806,13.43531
Best Gemüse Kebap,52.4811,13.43429
Debeka Versichern Bausparen,52.48197,13.43669
No/Bananas,52.49054,13.43486
Tung Long,52.48294,13.43228
Agata Bar Berlin,52.48583,13.43479
Mogli,52.4806,13.43531
Pizzeria Vivo,52.48425,13.43541
Meine Kleine Eiszeit,52.48451,13.4383
Life Berlin,52.49168,13.43328
Mp3,52.512515,13.453134
Madinina,52.51326,13.45254
Spielwiese,52.51041,13.45418
Mustafa Demir's Gemuse Kebap,52.51011,13.45112
Matanga - Fusion Tapas & Cocktails,52.51076,13.44959
Chipi Chipi Bombon - Ice Cream,52.51326,13.45254
Cafe Kala,52.51189,13.45277
Akkawy,52.51042,13.45281
Muday - Athiopisches Restaurant,52.51238,13.45383
Cafe Creperie Melt,52.5121,13.45392
Saigon Dragon Restaurant,52.51236,13.45398
Cantina an der Weberwiese,52.51604,13.44007
Molly Malone's,52.51125,13.44698
Vodkabar,52.51279,13.45134
New Arirang,52.5113,13.45166
Goodies Berlin,52.51154,13.45261
LION BURGER,52.51433,13.45386
Green Garden,52.51261,13.44584
Feuer & Flamme,52.5123,13.44785
Milch & Zucker,52.51172,13.45269
Alpenwirt,52.51695,13.44007
Umspannwerk Ost,52.51825,13.43994
Hermanas,52.51374,13.4536
Maputo - Internationales Café und Bistro,52.51651,13.44331
Spud Bencer,52.51076,13.44959
Maza Lounge,52.51705,13.44755
Abgedreht,52.5157,13.45225
San Diego,52.51657,13.45214
Kiezkuche Friedrichshain,52.51867,13.45422
Bread-A-Porter,52.5157,13.45225
Prager Hopfenstube,52.51692,13.44854
Kos House,52.5169,13.44871
Pizzeria Meyman,52.51364,13.45355
Aus Liebe zum Kiez,52.51115,13.44853
Abécédaire,52.51154,13.45261
Bambus Asia Imbiss Friedrichshain,52.51283,13.45115
Rubens Arepas,52.51374,13.4536
Bistro Antalya,52.51058,13.45133
Jager & Lustig,52.51341,13.44811
Vanilla Grey,52.51042,13.45281
Fleischerei Domke,52.51039,13.4521
Hirsch Bar,52.51087,13.45034
Oase,52.51058,13.45133
Soup & Rolls,52.51028,13.45361
Espressobar la Tazza D'Oro,52.5121,13.45392
Mister Pizza,52.51028,13.45361
Ciao Bella,52.51199,13.45197
Grunburger,52.51286,13.4493
Jagerklause Berlin,52.51341,13.44811
Taverna Kreta,52.5123,13.44785
Ristorante Vira,52.51102,13.45238
Mr Tom's,52.5113,13.45166
Avci Bistro Cafe,52.51039,13.4521
Rice Rolls,52.51536,13.43988
James June Sommergarten,52.5179,13.4413
Briefmarken - Grande Vini Piccola Cucina,52.51748,13.4427
Oranke Orange,52.51754,13.44197
Gaststatte Weberwiese,52.51587,13.44532
Pretty Cafe Deli,52.51635,13.44593
Jugendclub Feuerwache,52.51627,13.44225
Bierhof Rüdersdorf,52.51169,13.44321
Briefmarken Weine,52.51748,13.4427
Pizzeria Alte Forno,52.51007,13.45195
Waterlily,52.51716,13.44634
Wilder Hase,52.51026,13.44543
Himmelpforter Spezialitäten,52.51068,13.44924
Smokers Lounge,52.51347,13.45348
James June Event,52.51769,13.44142
Trattoria Portofino,52.51233,13.4484
Salsabil,52.51215,13.45362
Sao Viet,52.51236,13.45398
Curry & Beer,52.51232,13.45211
Chop Chop Dim Sum,52.51119,13.44989
Il Grande Torino,52.51696,13.45313
Kiez Vegan,52.51101,13.45153
Asia Song Hong,52.51058,13.45133
Saaldeck Cafe & Bar,52.51745,13.44362
Co Ha,52.5133,13.4534
Asia Point,52.51779,13.45377
Gemüse Kebap & Friends,52.51393,13.45368
Galaxxy Pizzeria Restaurant,52.51236,13.45398
Il Ritrovo,52.50953,13.45829
Spatzle & Knodel,52.50885,13.46113
Alarabi,52.51038,13.4587
Neumanns,52.51034,13.45811
Schneeweiss,52.50866,13.45816
Viet Bowl,52.52319,13.45322
Curry 66,52.51142,13.45802
Barrel Weinbar Berlin,52.52175,13.44942
Ristorante Sole,52.51625,13.45642
Nieu Com,52.5165,13.46052
Lachmann's Leckere Waffeln,52.52127,13.44975
XIGON,52.52163,13.4495
Protokoll Berlin,52.51318,13.45703
Mahalo Poke Berlin,52.51074,13.45795
Habana,52.51191,13.45667
Noa Lounge 108,52.513,13.45755
Medeaterranean Trip,52.51014,13.45802
L'Osteria Berlin Mercedes Platz,52.50562,13.44174
Pijalnia Wodki I Piwa,52.50913,13.45608
Thang Long China-Bistro,52.54888,13.59676
Myamstix,52.54888,13.59676
Al Teatro - Pizza & Pasta - Kaufpark Eiche,52.54888,13.59676
Eiche Grill & Asia Bistro,52.54881,13.59287
Das Restaurant,52.54888,13.59676
BURGER KING,52.54867,13.59381
Fisch Frank,52.54177,13.6032
Domino's Pizza,52.53816,13.60287
Call A Pizza,52.53938,13.60793
La Paz,52.53772,13.60334
Dal Vino,52.53802,13.6033
Dehning Heideschlachter,52.549423,13.600044
Amaretto Tre,52.53684,13.58719
China Restaurant Hui Feng,52.54151,13.60679
Bica Billard & Cafe,52.53935,13.60329
LOTUS Buffet,52.53821,13.6041
Die Kiste,52.5361,13.60956
Syrtaki,52.53709,13.60282
Citygrill Hellersdorf,52.53967,13.60663
Helle Bistro,52.5372,13.60728
Yogi-Haus,52.5372,13.60728
De Camora,52.54213,13.60673
Sushi For You Hellersdorf,52.53933,13.60735
Cam Ly Bistro,52.53808,13.6071
Avci,52.53771,13.60505
Quynh Asia / Quynh Bubble Tea,52.53771,13.60505
Pizzeria la Rosa,52.53771,13.60505
Coconut Bar,52.53821,13.6041
Wolke sieben,52.53165,13.59114
Yoko Sushi Hellersdorf,52.53477,13.60734
Pizza Max,52.53155,13.60425
Han Han Tran Bambusstäbchen,52.55,13.57871
Chinesisches Teehaus,52.53985,13.57666
Janny's Eis,52.53162,13.60303
Stradivari,52.535,13.60812
Café E,52.53206,13.60396
Tsingtao Pavillon,52.53985,13.57666
Zur Grünen Aue,52.48689,13.56065
Ristorante Rossini,52.48784,13.56077
Hofgarten zur Seerose,52.49282,13.53402
Gaststätte Floratreff,52.478101,13.541447
Wernesgruner Bierstube,52.48643,13.52655
Cafe Trebo,52.48578,13.52701
Mia Mambo Plus,52.48328,13.52554
La Cielo,52.4842,13.52651
China-Garden,52.47969,13.53034
Steakhaus Barbecue,52.48685,13.52734
Restaurant Gundelfinger,52.4832,13.52385
Eiskaffee Familato,52.48164,13.52592
Gino,52.48287,13.52638
B‘Steck,52.48344,13.52283
India Haus,52.48897,13.52508
Fatih Servet,52.48156,13.52564
Syrtaki Karlshorst,52.48101,13.52366
Havanna Bar,52.48178,13.52574
Albers - das Sportrestaurant,52.47843,13.52492
Kawi,52.48036,13.52442
Trattoria Il Gattopardo,52.48164,13.52592
Restaurant Yerevan,52.4842,13.52651
Thai A Dong Sushi Bar,52.48013,13.52474
Pizzastation Karlshorst,52.48967,13.52818
Bambus Imbiss,52.48223,13.52587
Dampf und Zucker,52.48344,13.52283
Harmonie Restaurant Karlshorst,52.47969,13.53034
Prinzeneis,52.48079,13.52344
Mia Mambo,52.48328,13.52554
Gaststatte Latichte,52.5763,13.34955
Restaurant im Paracelsusbad,52.57545,13.34722
Femo Döner & Burger,52.573654,13.350997
Pizza Coach,52.5759,13.35025
Call A Pizza Berlin Reinickendorf,52.58101,13.34591
The My Moon Restaurant & Lounge,52.57445,13.35862
Billard Café Break,52.580163,13.343506
Fly-In,52.5744,13.35972
Gottfrieds Hähnchengrill,52.57136,13.36067
Eis Mastro,52.57052,13.36049
Pho To,52.57072,13.36128
Longlihouse,52.56889,13.36196
Curry51,52.57078,13.36097
Das Löffelhaus,52.5743,13.33589
Shin Ya,52.57374,13.3552
Bubbles Lounge,52.58121,13.34459
Pizza Orient Berlin,52.56914,13.3514
Residenz Grill,52.57309,13.35899
Trattoria la Marina,52.57294,13.35919
Café Restaurant Neu,52.5837,13.33424
Steakhaus El Dorando,52.57401,13.35855
South Dakota,52.57169,13.3605
Trattoria la Trinacria,52.56914,13.3514
Thai-Nippon Sushi-Bar,52.56709,13.36213
Hasir Mitte,52.57968,13.3342
Irmak Döner,52.56647,13.36324
Ristorante Latium,52.57134,13.36281
Köylüoglu,52.56755,13.36267
Cafe am Schafersee,52.5653,13.36323
Huzur Gemuse Kebap,52.56465,13.36357
La Granja Grill,52.57134,13.36281
Horny's Pizza,52.56271,13.35315
Trattoria Nardini,52.56814,13.32978
Kiez - Kneipchen,52.56254,13.35687
Philios,52.56947,13.32976
Nostalgie,52.56409,13.3525
Pizza & Gusto,52.58456,13.33451
Schaferstubchen,52.5646,13.35386
Bei-Ling,52.58598,13.33537
Cafe As Bar,52.56662,13.32929
Fruhstuckshaus Mavera,52.56316,13.35933
Imbiss zum Wurfel,52.5882,13.34133
Pizza Coach,52.56271,13.35315
Ristorante Tornero,52.56237,13.35331
Buona Fortuna,52.64303,13.55871
Akropolis,52.62739,13.54419
Ristorante Don Giovanni,52.63843,13.56029
Ristorante Don Giovanni,52.64199,13.53669
Hansjoachim Hohlfeld,52.64875,13.55067
SUBWAY,52.63664,13.20513
Minh Khai Asia Snack,52.63715,13.20323
Bistro am Conny,52.63802,13.19575
Partyservice Hennigsdorf Bartsch,52.63802,13.19575
Kim Kim,52.63789,13.20504
Zum Strammen Max,52.63285,13.1944
Auers,52.63639,13.19978
Zur Deutschen Eiche,52.63803,13.19188
Bistro 76,52.63607,13.19876
Madlen-Kaffee Haus,52.63724,13.20505
Theodor's,52.63701,13.19916
Viet Thai Sushi Bar,52.63703,13.20132
Janny's Eis Hennigsdorf,52.63693,13.20289
City Bistro,52.63784,13.20507
Einfach Hubertus,52.64109,13.19648
Waldcafe Wendlandt,52.64269,13.1947
Hong Hanh Asiahaus,52.64219,13.20599
Zur Erholung,52.64152,13.19126
Pizza Planet,52.62878,13.20237
Marci's Hubertus,52.64109,13.19648
Fisch Eck,52.63523,13.20926
Restaurant Pizzeria Bu,52.63458,13.20657
Restaurant Syrtaki,52.634135,13.20745
Cafe-Restaurant Fair-Play,52.62929,13.20103
Bistro & Partyservice Thiel,52.63458,13.20657
Domino's Pizza Hennigsdorf,52.64073,13.20659
Pizza Didoff,52.640842,13.206981
Buongustaio,52.63458,13.20657
Restaurant Heynekendorp,52.63527,13.20734
Schallnus Musik-Cafe Pinte,52.64171,13.20623
Kantine Thermo Fischer,52.63303,13.21059
Die Escobar,52.64694,13.20121
Il Bosco,52.60124,13.24684
Ristorante Emilio,52.60186,13.23964
Sampor-Kaffee-Berlin,52.618,13.24097
Villa Felice,52.61408,13.24352
Seepavillon,52.58728,13.26016
Seepavillon am Tegeler See,52.58728,13.26016
Pong's,52.57303,13.22686
Kochmütze,52.517,13.54082
Marco Polo Tre,52.51928,13.55558
Zur Kleinen Remise,52.51895,13.55546
Ristorante Gelateria la Strada,52.52276,13.5569
Dai Duong,52.51442,13.55446
Taaj India,52.51368,13.55485
Heißer Wolf Imbissstuben,52.50708,13.55776
Darius Sushi,52.51442,13.55446
Eisblümchen,52.51416,13.55496
King of India,52.51245,13.53463
Zum Sattmacher,52.507285,13.55798
Daiduongsushibarasia,52.51442,13.55446
Genusspur No1,52.51896,13.56436
Tabbouleh Libanesische Spezialitäten Cateringservice,52.52634,13.53298
Profam-gemeinnützige,52.5282,13.54309
Asia & Sushi,52.52393,13.54358
Lemon Bar Marzahn,52.52393,13.54358
Strohhut,52.51667,13.52742
Rossini II,52.50506,13.56206
Antica Pizzacheria,52.51667,13.52742
Grillakademie Berlin,52.504891,13.557994
Kantine Lebenslust,52.51148,13.52988
Cafeteria,52.51937,13.56698
Akropolis,52.52822,13.5401
Schweizer Viertel,52.42691,13.30337
Pizzapastaphone,52.42694,13.30257
Chi Dang Restaurant,52.42694,13.30257
Trattoria Lugana,52.42107,13.29756
Edi's Cafe',52.42207,13.29938
Thai by Thai,52.42207,13.29938
Ristorante Vesuvio II,52.42107,13.29756
Hot Grill,52.42691,13.30337
