Name,lat,lon,Address
Spreearche,52.44289,13.61834,Müggelschlößchenweg sn Köpenick 12559 Berlin
Domaines,52.445831,13.627288,JosefNawrockiStraße 21 Friedrichshagen 12587 Berlin
Bräustübl,52.44662,13.62387,Müggelseedamm 164 Friedrichshagen 12587 Berlin
Friedrichshagener Hofküche,52.44699,13.62743,Scharnweberstraße 2 Friedrichshagen 12587 Berlin
Berliner Bürgerbräu,52.44662,13.62387,Müggelseedamm 164 Friedrichshagen 12587 Berlin
Heinrichs Kitchen,52.44821,13.62474,Bölschestraße 11 Friedrichshagen 12587 Berlin
Kid Creole,52.44802,13.62471,Bölschestraße 10 Friedrichshagen 12587 Berlin
Bar Josef Heinrich Kneipe,52.44821,13.62474,Bölschestraße 11 Friedrichshagen 12587 Berlin
Restaurantschiff Windflüchter & Gestrandet Hafenbar,52.44654,13.63063,Müggelseedamm 216 Friedrichshagen 12587 Berlin
Steak Schmiede - Restaurant und Bar,52.44712,13.62541,Müggelseedamm 171A Friedrichshagen 12587 Berlin
Thieme,52.44831,13.62415,Bölschestraße 128 Friedrichshagen 12587 Berlin
Tapa. Spanisches Restaurant & Kneipe,52.44746,13.62749,Scharnweberstraße 5 Friedrichshagen 12587 Berlin
Restaurant Ehrlich,52.44542,13.62629,JosefNawrockiStraße 16 Friedrichshagen 12587 Berlin
Biergarten am Sudhaus,52.446705,13.624515,Müggelseedamm 166 Friedrichshagen 12587 Berlin
Restaurantschiff Windfluchter,52.44578,13.6275,JosefNawrockiStraße 25 Friedrichshagen 12587 Berlin
Restaurant Taverna der Grieche,52.44664,13.62736,Müggelseedamm 188 Friedrichshagen 12587 Berlin
Mokkafee,52.44772,13.62468,Bölschestraße 7 Friedrichshagen 12587 Berlin
Marina Sol,52.44842,13.61015,Müggelseedamm 70 Friedrichshagen 12587 Berlin
Simply Asia,52.44928,13.62426,Bölschestraße 121 Friedrichshagen 12587 Berlin
Mauna Kea,52.45256,13.62524,Bölschestraße 44 Friedrichshagen 12587 Berlin
Der Feinkostladen,52.45139,13.62451,Bölschestraße 108 Friedrichshagen 12587 Berlin
Trattoria Casa Italiana,52.45363,13.62538,Bölschestraße 51 Friedrichshagen 12587 Berlin
Zum Alten Fritz,52.4518,13.62456,Bölschestraße 104 Friedrichshagen 12587 Berlin
An di an di,52.4518,13.62456,Bölschestraße 104 Friedrichshagen 12587 Berlin
Tanriverdi's Bistro,52.45471,13.62551,Bölschestraße 60 Friedrichshagen 12587 Berlin
Cafe and Restaurant vier Jahreszeiten,52.45199,13.62543,Bölschestraße 37 Friedrichshagen 12587 Berlin
Veracruz,52.45564,13.62562,Bölschestraße 66 Friedrichshagen 12587 Berlin
Müggelschlösschen,52.44863,13.62419,Bölschestraße 126 Friedrichshagen 12587 Berlin
Wirtshaus Rolandseck,52.45309,13.6278,Scharnweberstraße 80 Friedrichshagen 12587 Berlin
Tresoli,52.45162,13.62454,Bölschestraße 105 Friedrichshagen 12587 Berlin
L'Annam,52.45598,13.62506,Bölschestraße 76 Friedrichshagen 12587 Berlin
Die Spindel,52.45363,13.62538,Bölschestraße 51 Friedrichshagen 12587 Berlin
Kodama,52.44928,13.62426,Bölschestraße 121 Friedrichshagen 12587 Berlin
Eis Dadalt,52.45324,13.62473,Bölschestraße 94 Friedrichshagen 12587 Berlin
Eiscafe Klatsch,52.44991,13.62494,Bölschestraße 25 Friedrichshagen 12587 Berlin
Pane Vino,52.45008,13.62496,Bölschestraße 26 Friedrichshagen 12587 Berlin
Muggelsee Terrassen,52.42639,13.62916,Müggelheimer Damm 143 Köpenick 12559 Berlin
Seerestaurant,52.42613,13.64023,Müggelheimer Damm 145 Köpenick 12559 Berlin
Wendenturm,52.42613,13.64023,Müggelheimer Damm 145 Köpenick 12559 Berlin
Windrose,52.44842,13.61015,Müggelseedamm 70 Friedrichshagen 12587 Berlin
Cafeteria im Krankenhaus Köpenick,52.44002,13.59428,SalvadorAllendeStraße Köpenick 12559 Berlin
Maxes Veranstaltungslokal Cöpenick,52.43325,13.59566,Pritstabelstraße 60 Köpenick 12557 Berlin
Chartina Lokal,52.43976,13.59405,SalvadorAllendeStraße Köpenick 12559 Berlin
Asia Park,52.4351,13.59605,Grüne Trift am Walde 15 Köpenick 12557 Berlin
Hausmannskost Köpenick,52.44041,13.60144,Müggelschlößchenweg 44 Köpenick 12559 Berlin
Gaststatte zur Glocke,52.45108,13.62564,Bölschestraße 31 Friedrichshagen 12587 Berlin
Goldmanns Feine Kost,52.45576,13.62614,Am Goldmannpark 4 Friedrichshagen 12587 Berlin
Hotel-Pension Mendau,52.45616,13.61154,Stillerzeile 42 Friedrichshagen 12587 Berlin
Thüringer Ritter,52.45649,13.62513,Bölschestraße 73 Friedrichshagen 12587 Berlin
Bölsche Imbiss,52.45659,13.62514,Bölschestraße 72 Friedrichshagen 12587 Berlin
Tunneleck,52.5285,13.27167,Fürstenbrunner Weg 92 Westend 14050 Berlin
Il Ducato,52.53538,13.27114,Reisstraße 26 Siemensstadt 13629 Berlin
By Ottoman,52.53637,13.27054,Nonnendammallee 86 Siemensstadt 13629 Berlin
Burger City,52.53641,13.26867,Nonnendammallee 84 Siemensstadt 13629 Berlin
Call A Pizza,52.53689,13.28648,Halemweg 17 CharlottenburgNord 13627 Berlin
Centro Italia,52.52128,13.28563,SophieCharlottenStraße 9 Charlottenburg 14059 Berlin
Weinlounge,52.536057,13.273315,Ohmstraße 9 Siemensstadt 13629 Berlin
Plattform,52.53111,13.28198,Nonnendamm 33 CharlottenburgNord 13627 Berlin
Raj Mahaal,52.53605,13.27494,Siemensdamm 43 Siemensstadt 13629 Berlin
Technocampus Berlin,52.534398,13.279121,Siemensdamm 59 Siemensstadt 13627 Berlin
Dioklecian,52.53605,13.27494,Siemensdamm 43 Siemensstadt 13629 Berlin
Manous Schlemmerbude,52.53707,13.27533,Popitzweg 14 Siemensstadt 13629 Berlin
Stari Most,52.53742,13.28581,Halemweg 21 CharlottenburgNord 13627 Berlin
Alte Forno,52.53631,13.27213,Siemensdamm 47 Siemensstadt 13629 Berlin
Gujrat Palace Restaurant,52.53711,13.26856,Quellweg 23 Siemensstadt 13629 Berlin
Kutschi Eck GmbH&Co.Kg,52.53528,13.27,Wernerwerkdamm 28 Siemensstadt 13629 Berlin
Coffee Fellows,52.53547,13.2684,Wernerwerkdamm Siemensstadt 13629 Berlin
Delizie da Vito,52.53695,13.26704,Nonnendammallee 97 Siemensstadt 13629 Berlin
M26,52.53538,13.27114,Reisstraße 26 Siemensstadt 13629 Berlin
Siemensstuben,52.53771,13.26618,Jugendweg 4 Siemensstadt 13629 Berlin
La Pausa,52.53686,13.27084,Nonnendammallee 90 Siemensstadt 13629 Berlin
Argentinisches Steakhaus Nonnendamm,52.53697,13.26614,Nonnendammallee 98 Siemensstadt 13629 Berlin
Voßia Trattoria,52.53711,13.26856,Quellweg 23 Siemensstadt 13629 Berlin
Conti̇ Grillhaus,52.53637,13.27054,Nonnendammallee 86 Siemensstadt 13629 Berlin
Musikcafe Hai Life,52.53692,13.26827,Nonnendammallee 94 Siemensstadt 13629 Berlin
Restaurant Stammhaus,52.53609,13.2655,Rohrdamm 24 Siemensstadt 13629 Berlin
Adria Grill,52.5364,13.26899,Nonnendammallee 84A Siemensstadt 13629 Berlin
Burgerzimmer,52.53641,13.26867,Nonnendammallee 84 Siemensstadt 13629 Berlin
Butcher's Burger,52.53685,13.27103,Nonnendammallee 89 Siemensstadt 13629 Berlin
Berliner Rouladenhaus,52.53643,13.26769,Nonnendammallee 83 Siemensstadt 13629 Berlin
Goebel Bistro Berlin,52.53797,13.28018,Toeplerstraße 31 CharlottenburgNord 13627 Berlin
Ile de Bali,52.53705,13.26641,Wattstraße 12 Siemensstadt 13629 Berlin
Da Vito,52.53705,13.26641,Wattstraße 12 Siemensstadt 13629 Berlin
Halem Grill,52.53742,13.28581,Halemweg 21 CharlottenburgNord 13627 Berlin
Piazza Italia Siemensstadt,52.53711,13.26856,Quellweg 23 Siemensstadt 13629 Berlin
Nobbis Feine Suppen,52.53761,13.26467,Rohrdamm 26 Siemensstadt 13629 Berlin
Thien Thai-Bistro,52.53626,13.2724,Siemensdamm 48 Siemensstadt 13629 Berlin
Restaurant Bibi,52.53689,13.28648,Halemweg 17 CharlottenburgNord 13627 Berlin
Royal Asia,52.53705,13.26641,Wattstraße 12 Siemensstadt 13629 Berlin
Pizza Pasta da Matteo,52.52057,13.26753,Spandauer Damm 170 Westend 14050 Berlin
Anno Domini,52.51853,13.28989,Klausenerplatz 21 Charlottenburg 14059 Berlin
Sommergarten am Wasserturm,52.54358,13.29071,CharlottenburgNord 13629 Berlin
Cedre Blanc,52.51734,13.29391,Nehringstraße 34 Charlottenburg 14059 Berlin
Tamarind,52.51707,13.28106,KöniginElisabethStraße 52 Westend 14059 Berlin
Lotti & August - Cafe,52.51382,13.27879,Haeselerstraße 20 Westend 14050 Berlin
Eis Emporio,52.52085,13.25569,Koburgallee 3 Westend 14052 Berlin
SUBWAY,52.53982,13.2501,Nonnendammallee 119 Siemensstadt 13629 Berlin
Domino's Pizza,52.51827,13.27765,Spandauer Damm 127 Westend 14050 Berlin
Grosse Orangerie Schloss Charlottenburg,52.5199,13.29304,Spandauer Damm 22 Charlottenburg 14059 Berlin
Call A Pizza,52.51469,13.2876,SophieCharlottenStraße 35 Charlottenburg 14059 Berlin
Mischau,52.52774,13.24351,Wiesendamm 29 Spandau 13597 Berlin
Merz Catering,52.52708,13.24669,Wiesendamm 15 Spandau 13597 Berlin
Westend Grill,52.51593,13.26065,Reichsstraße 81 Westend 14052 Berlin
China Pfanne,52.51892,13.28575,Spandauer Damm 82 Charlottenburg 14059 Berlin
Cordoba,52.51762,13.29002,Danckelmannstraße 1 Charlottenburg 14059 Berlin
Ristorante Dante,52.52617,13.29782,Tegeler Weg 16 Charlottenburg 10589 Berlin
Imbiss König,52.51832,13.28709,SophieCharlottenStraße 104 Charlottenburg 14059 Berlin
Kleine Orangerie,52.51993,13.29356,Spandauer Damm 20 Charlottenburg 14059 Berlin
Cafe am Belvedere,52.52816,13.29734,Tegeler Weg 23A Charlottenburg 10589 Berlin
Peppery Bistro,52.5183,13.28198,Spandauer Damm 101 Westend 14059 Berlin
Rigpa,52.51715,13.27924,Soorstraße 85 Westend 14050 Berlin
Pizza Asia Sushi Food Berlin,52.51672,13.28608,SophieCharlottenStraße 25 Charlottenburg 14059 Berlin
El Greco,52.52894,13.29697,Tegeler Weg 25 Charlottenburg 10589 Berlin
Markus Assemacher -Teichterrasse,52.54282,13.273637,Jungfernheideweg CharlottenburgNord 13629 Berlin
New Asia Food,52.51658,13.29099,Christstraße 32A Charlottenburg 14059 Berlin
Zur Linde,52.51682,13.28755,SophieCharlottenStraße 97 Charlottenburg 14059 Berlin
Restaurante Masha,52.5359,13.29994,Reichweindamm CharlottenburgNord 13627 Berlin
Trattoria fra Diavoli,52.51787,13.29317,Neufertstraße 22 Charlottenburg 14059 Berlin
Kasik-la,52.51911,13.28897,Spandauer Damm 56 Charlottenburg 14059 Berlin
Mama Leone,52.5259,13.30055,Osnabrücker Straße 24 Charlottenburg 10589 Berlin
Ajdari Ajdar Steakhouse,52.51762,13.29002,Danckelmannstraße 1 Charlottenburg 14059 Berlin
Oez Kebap,52.51832,13.28709,SophieCharlottenStraße 104 Charlottenburg 14059 Berlin
Karagiosis,52.51836,13.29273,Klausenerplatz 4 Charlottenburg 14059 Berlin
LOTUS Lounge,52.51715,13.27924,Soorstraße 85 Westend 14050 Berlin
Pizza Coach,52.51901,13.28899,Spandauer Damm 56 Charlottenburg 14059 Berlin
Pizzeria al Ponte,52.53903,13.2702,Quellweg 35A Siemensstadt 13629 Berlin
Ha Noi Pho,52.53838,13.24865,Nonnendammallee 121 Siemensstadt 13629 Berlin
Westend-Klause,52.51681,13.2595,Reichsstraße 80 Westend 14052 Berlin
Il Cardinale,52.51657,13.25982,Reichsstraße 80B Westend 14052 Berlin
Der Balken,52.52105,13.25602,GothaAllee 29 Westend 14052 Berlin
Mendoza Berlin,52.51952,13.27072,Spandauer Damm 157 Westend 14050 Berlin
Lin's Mandarin,52.5205,13.2652,Spandauer Damm 181185 Westend 14050 Berlin
Ristorante Piccolo Mondo,52.51229,13.26802,Reichsstraße 9 Westend 14052 Berlin
Salumeria Via Vai,52.51229,13.26802,Reichsstraße 9 Westend 14052 Berlin
Thai Food Orchidee,52.51341,13.26458,Reichsstraße 92 Westend 14052 Berlin
Café Konditorei M&N Group Inh. Mojgan Moazazi Malkanfar,52.51238,13.26558,Länderallee 40 Westend 14052 Berlin
Cafe- Ein Stuck Weit Zauber,52.51238,13.26558,Länderallee 40 Westend 14052 Berlin
Hoi an,52.53859,13.24809,Paulsternstraße 4 Haselhorst 13629 Berlin
Viet Cuisine,52.52323,13.29991,Tegeler Weg 2 Charlottenburg 10589 Berlin
Takim Köfte & Burger,52.51926,13.29069,Spandauer Damm 40 Charlottenburg 14059 Berlin
Sylvia Amoruso Italienisches,52.51685,13.26164,Steubenplatz 5 Westend 14050 Berlin
Dao Sheng Tang,52.51808,13.27894,Spandauer Damm 119 Westend 14050 Berlin
Bachata-Café Berlin,52.51432,13.28441,Epiphanienweg 6 Westend 14059 Berlin
The Grill,52.51862,13.28706,Spandauer Damm Charlottenburg 14059 Berlin
Omi Rosis Suppen,52.52026,13.28653,SophieCharlottenStraße 107 Charlottenburg 14059 Berlin
Cafe Jungfernheide,52.53885,13.28289,Schweiggerweg 8 CharlottenburgNord 13627 Berlin
Anna's To Go,52.51394,13.26419,Reichsstraße 89 Westend 14052 Berlin
Bennywood,52.51938,13.29054,Spandauer Damm 44 Charlottenburg 14059 Berlin
Restaurant Epavlis,52.51623,13.25449,Olympische Straße 30 Westend 14052 Berlin
Michian Restaurant,52.51787,13.28065,KöniginElisabethStraße 60 Westend 14059 Berlin
Turmidyll,52.416965,13.62531,Müggelturm Köpenick 12559 Berlin
Hauptmann-Restaurant,52.41716,13.62524,Straße zum Müggelturm 1 Köpenick 12559 Berlin
Richtershorn,52.40143,13.6254,Sportpromenade 15 Grünau 12527 Berlin
Hanffs Ruh,52.4078,13.59907,RabindranathTagoreStraße 25 Grünau 12527 Berlin
Ruderklause im Sscbg,52.39572,13.63576,Rohrwallallee 11 Schmöckwitz 12527 Berlin
China-Haus im Wendenschloß,52.41483,13.59562,Möllhausenufer 27 Köpenick 12557 Berlin
Winery Food,52.55749,13.21893,HugoCassirerStraße 26 Hakenfelde 13587 Berlin
Lale Bistro,52.55792,13.21908,DavidFranckeStraße 1 Hakenfelde 13587 Berlin
Il Castello,52.5614,13.20874,Streitstraße 27A Hakenfelde 13587 Berlin
Bootshaus Haselhorst,52.55072,13.23625,Bootshausweg 1 Haselhorst 13599 Berlin
Kale Gıda Lebensmittelmarkt - Quality Halal Product,52.56126,13.20812,Streitstraße 59 Hakenfelde 13587 Berlin
Ye-Mc,52.56146,13.20816,Streitstraße 58 Hakenfelde 13587 Berlin
Lasila,52.56205,13.20884,Streitstraße 30 Hakenfelde 13587 Berlin
Curry 55,52.56217,13.20833,Streitstraße 55 Hakenfelde 13587 Berlin
Wirtshaus Heimatliebe,52.55072,13.23625,Bootshausweg 1 Haselhorst 13599 Berlin
Pizza del Leo,52.55185,13.20986,Schäferstraße 14 Hakenfelde 13585 Berlin
Restaurant Cafe'Havelblick,52.55416,13.21045,Havelschanze 9 Hakenfelde 13587 Berlin
China Restaurant Swang Lung,52.56233,13.20836,Streitstraße 54 Hakenfelde 13587 Berlin
Ars Vini,52.55938,13.23962,Im Saatwinkel 15 Tegel 13599 Berlin
La Diva,52.57308,13.22354,Aalemannufer 31 Hakenfelde 13587 Berlin
Restaurant Emil's at Centrovital Hotel,52.5469,13.20954,Neuendorfer Straße 25 Hakenfelde 13585 Berlin
Call A Pizza,52.55153,13.19972,Schönwalder Straße 66 Spandau 13585 Berlin
Hähnchenprinz,52.57578,13.21318,Rustweg 1 Hakenfelde 13587 Berlin
Pong's,52.57303,13.22686,Jörsstraße 14 Konradshöhe 13505 Berlin
Fährhaus Spandau,52.57308,13.22354,Aalemannufer 31 Hakenfelde 13587 Berlin
Sutos,52.56866,13.20245,Wichernstraße 53 Hakenfelde 13587 Berlin
Raymons - das Fischrestaurant,52.54634,13.21172,FriedaArnheimPromenade 7 Hakenfelde 13585 Berlin
Night and Day,52.5501,13.20066,Schönwalder Straße 39 Spandau 13585 Berlin
Luitpold,52.55682,13.20425,Wegscheider Straße 7 Hakenfelde 13587 Berlin
Stilbruch,52.54879,13.2218,Eiswerderstraße 22 Hakenfelde 13585 Berlin
Bistro Class,52.54822,13.20066,Schönwalder Straße 85 Spandau 13585 Berlin
Maximilian,52.554198,13.198877,Fehrbelliner Tor Spandau 13585 Berlin
Havel Bistro,52.55588,13.2073,Streitstraße Hakenfelde 13587 Berlin
Pizzeria la Familia Spandau,52.54511,13.20759,Neuendorfer Straße 91 Spandau 13585 Berlin
Cafe' Sofra3,52.54792,13.20147,Schönwalder Straße 28 Spandau 13585 Berlin
Kochkunst,52.5469,13.20954,Neuendorfer Straße 25 Hakenfelde 13585 Berlin
Bowl Arena Spandau,52.54952,13.21058,Neuendorfer Straße 39 Hakenfelde 13585 Berlin
Conny's Eiscafe,52.57372,13.21641,Zu den Fichtewiesen 10 Hakenfelde 13587 Berlin
Pizza Hot & Fresh,52.55104,13.19986,Schönwalder Straße 69 Spandau 13585 Berlin
Bereket Grillhaus,52.55588,13.2073,Streitstraße 80 Hakenfelde 13587 Berlin
Café Hangôver,52.54501,13.20868,Triftstraße 2 Spandau 13585 Berlin
Shisha Café Sandmann,52.55171,13.19964,Schönwalder Straße 65 Spandau 13585 Berlin
Mevlana Grill,52.54851,13.20851,Kurstraße 22 Spandau 13585 Berlin
Trattoria Sale & Pepe,52.55655,13.2074,Streitstraße 76 Hakenfelde 13587 Berlin
Spandau Sushi - China Thai,52.54869,13.20164,Lynarstraße 20 Spandau 13585 Berlin
Café im Bienenstock,52.55903,13.24005,Im Saatwinkel 17 Tegel 13599 Berlin
Café Spandauer,52.54783,13.20096,Schönwalder Straße 89 Spandau 13585 Berlin
Asia Sushi Bar,52.43294,13.53571,Rudower Chaussee 12 Adlershof 12489 Berlin
SUBWAY,52.43294,13.53571,Rudower Chaussee 12 Adlershof 12489 Berlin
Taverna Odyssee,52.44803,13.50792,Sterndamm 59 Johannisthal 12487 Berlin
Alte Forno Sonnenallee,52.44283,13.53544,Sonnenallee Adlershof 12489 Berlin
Sushi and Friends,52.44806,13.50767,Sterndamm 57 Johannisthal 12487 Berlin
El Ganado,52.44732,13.50728,Sterndamm 63 Johannisthal 12487 Berlin
Esswirtschaft,52.43134,13.53259,Rudower Chaussee 24 Adlershof 12489 Berlin
Café Campus,52.4358,13.52929,GroßBerliner Damm 138 Adlershof 12489 Berlin
Cuccis,52.44413,13.53079,Adlergestell Niederschöneweide 12439 Berlin
Olivenbaum,52.43163,13.53475,Rudower Chaussee 15 Adlershof 12489 Berlin
Mani Mogo,52.43275,13.5323,ErichThiloStraße 3 Adlershof 12489 Berlin
Holz Kohlen Grill,52.44283,13.53544,Sonnenallee Adlershof 12489 Berlin
Ngân Long,52.43912,13.50762,Segelfliegerdamm 89 Johannisthal 12487 Berlin
Muttis Futterbude,52.44454,13.51758,GroßBerliner Damm 75 Johannisthal 12487 Berlin
MR. Wu Restaurant,52.43221,13.53691,Am Studio 1 Adlershof 12489 Berlin
Pinoli Cafe-Restaurant,52.44913,13.51264,Nieberstraße 12 Johannisthal 12487 Berlin
Olympia Greek-Food,52.43387,13.53825,Rudower Chaussee Adlershof 12489 Berlin
BURGER KING,52.45257,13.51483,MichaelBrücknerStraße 24 Niederschöneweide 12439 Berlin
Siena,52.45426,13.51764,Schnellerstraße 38 Niederschöneweide 12439 Berlin
Call A Pizza,52.45228,13.53135,Schnellerstraße 86 Niederschöneweide 12439 Berlin
Ristorante Villa Romana Berlin,52.43575,13.54824,Radickestraße 46 Adlershof 12489 Berlin
Venezia,52.43727,13.54482,FlorianGeyerStraße 109 Adlershof 12489 Berlin
Meet Saigon,52.43382,13.54032,FranzEhrlichStraße 5 Adlershof 12489 Berlin
Suppenkasper,52.43727,13.54482,FlorianGeyerStraße 109 Adlershof 12489 Berlin
Currywurst Nr 1,52.43555,13.54199,Dörpfeldstraße 1 Adlershof 12489 Berlin
P Two,52.43889,13.55046,Dörpfeldstraße 58 Adlershof 12489 Berlin
China-Restaurant Palast,52.43608,13.54341,Dörpfeldstraße 7 Adlershof 12489 Berlin
Blattlaus Adlershof,52.44139,13.5372,Neltestraße 19D Adlershof 12489 Berlin
Bistro la Petit,52.42983,13.54185,Am Studio 20 Adlershof 12489 Berlin
Himbeerfrosch,52.43875,13.54837,Hackenbergstraße 29 Adlershof 12489 Berlin
Athen,52.43494,13.54694,Radickestraße 57 Adlershof 12489 Berlin
Ristorante Il Porto,52.42515,13.52782,Semmelweisstraße 104 Altglienicke 12524 Berlin
Eat Green,52.43387,13.53825,Rudower Chaussee 5B Adlershof 12489 Berlin
Maharadscha,52.43584,13.54845,Radickestraße 44 Adlershof 12489 Berlin
Imbiss Bao Cun,52.43654,13.54404,Dörpfeldstraße 18 Adlershof 12489 Berlin
Bella Italia,52.43811,13.54896,Dörpfeldstraße 43 Adlershof 12489 Berlin
La Leona,52.43575,13.54824,Radickestraße 46 Adlershof 12489 Berlin
Hong Kong Haus,52.43434,13.54329,Weerthstraße 2 Adlershof 12489 Berlin
Adler Burger,52.43511,13.5424,Abtstraße 1 Adlershof 12489 Berlin
Il Mondo,52.43471,13.54311,Platz der Befreiung 1 Adlershof 12489 Berlin
Kobani Bistro,52.45447,13.51627,Schnellerstraße 36 Niederschöneweide 12439 Berlin
Springborn-Club,52.43645,13.49773,Springbornstraße 53 Johannisthal 12487 Berlin
Gaumenschmaus Hähnchengrill,52.43212,13.4963,Stubenrauchstraße 97 Rudow 12357 Berlin
Maximilian,52.43433,13.50173,Eisenhutweg 2 Johannisthal 12487 Berlin
Artemis,52.45312,13.52453,Schnellerstraße 97 Niederschöneweide 12439 Berlin
Serrano,52.45348,13.51805,Britzer Straße 17 Niederschöneweide 12439 Berlin
Cadadia,52.42846,13.52568,Rudower Chaussee 39 Adlershof 12489 Berlin
Kaiser Drachen Chinarestaurant,52.4354,13.50174,Stubenrauchstraße 78 Johannisthal 12487 Berlin
Lenders,52.4443,13.50582,Winckelmannstraße 9 Johannisthal 12487 Berlin
Pizza Chero,52.45473,13.51634,Schnellerstraße 112 Niederschöneweide 12439 Berlin
Caffe Kamee,52.42949,13.53025,Rudower Chaussee 25 Adlershof 12489 Berlin
Kranhaus Cafe,52.45426,13.52878,PaulTroppStraße 11 Oberschöneweide 12459 Berlin
Don Giovanni,52.44271,13.50643,Winckelmannstraße 37 Johannisthal 12487 Berlin
Il Monello,52.45291,13.51013,Sterndamm 7 Johannisthal 12487 Berlin
Eiskultur Berlin,52.4551,13.51484,Schnellerstraße 118 Niederschöneweide 12439 Berlin
Mia Toscana,52.43843,13.54985,Dörpfeldstraße 47 Adlershof 12489 Berlin
Ibo's Kebup,52.435131,13.54087,Rudower Chaussee Adlershof 12489 Berlin
Café an der Spree,52.45249,13.53402,BrunoBürgelWeg 9 Niederschöneweide 12439 Berlin
Cafeteria im Archenhold Gymnasium,52.45138,13.5229,Rudower Straße 7 Niederschöneweide 12439 Berlin
Steakhaus Mediterran,52.45311,13.53859,BrunoBürgelWeg 50 Niederschöneweide 12439 Berlin
Azuma,52.43302,13.53696,Rudower Chaussee 9 Adlershof 12489 Berlin
Tran Asia,52.43591,13.54324,AnnaSeghersStraße 109 Adlershof 12489 Berlin
Zamzam,52.45621,13.51947,Hainstraße 15 Niederschöneweide 12439 Berlin
Grill Profi,52.45068,13.50843,Sterndamm 35 Johannisthal 12487 Berlin
Pizza Capitol,52.43734,13.54687,Dörpfeldstraße 29 Adlershof 12489 Berlin
Beef Burger,52.44608,13.5064,Sterndamm 73 Johannisthal 12487 Berlin
Stern Bistro,52.45352,13.50955,Sterndamm 6 Johannisthal 12487 Berlin
Sonnen-Café,52.45261,13.50958,Sterndamm 11 Johannisthal 12487 Berlin
Die Küchengeister,52.43886,13.54988,Dörpfeldstraße 54 Adlershof 12489 Berlin
Cafe Zara,52.43555,13.54199,Dörpfeldstraße 1 Adlershof 12489 Berlin
Mensa Oase Hu Adlershof,52.42949,13.53025,Rudower Chaussee 25 Adlershof 12489 Berlin
Mac's Bistro,52.445269,13.504441,Sterndamm 86 Johannisthal 12487 Berlin
Lekker.Berlin,52.44988,13.53556,Erikastraße 35 Niederschöneweide 12439 Berlin
Olympia Greek Food,52.451982,13.52311,Rudower Straße 5A Niederschöneweide 12439 Berlin
Airleben-Cuisine,52.43382,13.54032,FranzEhrlichStraße 5 Adlershof 12489 Berlin
Al Castagno,52.58711,13.22581,Sandhauser Straße 11 Konradshöhe 13505 Berlin
Plitvice,52.58435,13.22735,Falkenplatz 1 Konradshöhe 13505 Berlin
Ristorante Emilio,52.60186,13.23964,Heiligenseestraße 51 Heiligensee 13503 Berlin
Straßenbahndepot,52.60588,13.21233,AltHeiligensee 73 Heiligensee 13503 Berlin
Tenniscasino Heiligensee,52.60023,13.2211,Elchdamm 171 Heiligensee 13503 Berlin
Seebad Heiligensee,52.60011,13.2131,Sandhauser Straße 132 Heiligensee 13503 Berlin
Pizzeria Piccola Verona,52.43987,13.27522,Berliner Straße 67 Zehlendorf 14169 Berlin
BAB & Kimchi,52.43987,13.27522,Berliner Straße 67 Zehlendorf 14169 Berlin
Café Lebensart,52.43625,13.26151,Clayallee 346 Zehlendorf 14169 Berlin
Romana,52.44308,13.28553,Unter den Eichen 84 Lichterfelde 12205 Berlin
Susido Restaurant,52.43219,13.25878,Teltower Damm 26 Zehlendorf 14169 Berlin
Ristorante Arcimboldo,52.43628,13.26071,Clayallee 347 Zehlendorf 14169 Berlin
Curry-Station,52.4316,13.25934,Teltower Damm 35 Zehlendorf 14169 Berlin
Veggie No. 1 - die Grüne Mensa,52.44694,13.28327,VantHoffStraße 6 Dahlem 14195 Berlin
Unser Feines Restaurant,52.43335,13.28675,Ringstraße 49 Lichterfelde 12205 Berlin
Tomasa,52.43475,13.26263,Berliner Straße 8 Zehlendorf 14169 Berlin
Efes Grill,52.43021,13.25935,Teltower Damm 42 Zehlendorf 14167 Berlin
Anneliese,52.43034,13.25979,Herbergerweg 2 Zehlendorf 14167 Berlin
Sumak,52.430846,13.259519,Teltower Damm 37 Zehlendorf 14167 Berlin
Asia MJ Snack,52.43063,13.2592,Teltower Damm 38 Zehlendorf 14167 Berlin
Borkowski's Curry & Chicken,52.43724,13.26216,Clayallee 336 Zehlendorf 14169 Berlin
Kaffeespezialitäten Coffee,52.43021,13.25935,Teltower Damm 42 Zehlendorf 14167 Berlin
Mühlengarten,52.43049,13.2671,Mühlenstraße 17 Zehlendorf 14167 Berlin
La Fontaine,52.4356,13.25872,OnkelTomStraße 1 Zehlendorf 14169 Berlin
Zehlendorfer Grill,52.43052,13.25873,Machnower Straße 1 Zehlendorf 14165 Berlin
The Asia Kitchen,52.43804,13.26187,Clayallee 327 Zehlendorf 14169 Berlin
Cafe Bistro Tableau,52.43219,13.25878,Teltower Damm 26 Zehlendorf 14169 Berlin
Block House,52.43149,13.25883,Teltower Damm 36 Zehlendorf 14169 Berlin
Civans Imbiss,52.43576,13.26122,Clayallee 352 Zehlendorf 14169 Berlin
MR. Tokyo,52.43219,13.25878,Teltower Damm 26 Zehlendorf 14169 Berlin
Lieblingswaffel,52.4348,13.26283,Berliner Straße 8A Zehlendorf 14169 Berlin
Burgerzimmer XII,52.4348,13.26283,Berliner Straße 8A Zehlendorf 14169 Berlin
Capital Gourmet,52.43077,13.26537,Mühlenstraße 14 Zehlendorf 14167 Berlin
Shaolin China Restaurant,52.43515,13.26169,Berliner Straße 3 Zehlendorf 14169 Berlin
Aysim,52.43063,13.2592,Teltower Damm 38 Zehlendorf 14167 Berlin
Cafe Rodelhütte,52.4356,13.25872,OnkelTomStraße 1 Zehlendorf 14169 Berlin
Milch und Honig,52.44452,13.26131,SophieCharlotteStraße 29 Zehlendorf 14169 Berlin
Saigon Bbq Art & Sushi Bar,52.43804,13.26187,Clayallee 327 Zehlendorf 14169 Berlin
Ko Phai 33,52.43195,13.25916,Teltower Damm 33 Zehlendorf 14169 Berlin
Sakura,52.43576,13.26122,Clayallee 352 Zehlendorf 14169 Berlin
Cucciolo,52.4337,13.26013,Teltower Damm 13 Zehlendorf 14169 Berlin
Coffeeshop Z,52.43261,13.25949,Teltower Damm 25 Zehlendorf 14169 Berlin
Al Posto,52.43433,13.28681,Weißwasserweg 2A Lichterfelde 12205 Berlin
Shanling,52.43523,13.26131,Berliner Straße 1 Zehlendorf 14169 Berlin
Arkade,52.43485,13.25974,Teltower Damm 2 Zehlendorf 14169 Berlin
Trattoria Toscana Berlin,52.45418,13.27315,Clayallee 146 Dahlem 14195 Berlin
Mediterraneo,52.44786,13.25193,OnkelTomStraße 66 Zehlendorf 14169 Berlin
Cake Artist,52.42846,13.25615,Machnower Straße 25 Zehlendorf 14165 Berlin
Piazza,52.43499,13.25778,MartinBuberStraße 18 Zehlendorf 14163 Berlin
Breadleys,52.44985,13.26965,Clayallee 225 Dahlem 14195 Berlin
Thai Cuisine,52.42968,13.25995,Teltower Damm 49 Zehlendorf 14167 Berlin
Madloba Ethno,52.44279,13.29783,Gardeschützenweg 139 Lichterfelde 12203 Berlin
S1 Burger,52.44327,13.29465,HansSachsStraße 4D Lichterfelde 12205 Berlin
SUBWAY,52.42993,13.25988,Teltower Damm Zehlendorf 14167 Berlin
Marinella,52.4446,13.29171,Unter den Eichen 94 Lichterfelde 12205 Berlin
Restaurant Zeus,52.43261,13.29964,Finckensteinallee 62 Lichterfelde 12205 Berlin
Merida,52.4444,13.29463,Drakestraße 42 Lichterfelde 12205 Berlin
Cafe Kauderwelsch,52.45103,13.28802,Habelschwerdter Allee 45 Dahlem 14195 Berlin
Litehouse,52.44228,13.2955,Baseler Straße 10 Lichterfelde 12205 Berlin
Restaurant Annarella,52.43899,13.30074,Drakestraße 60 Lichterfelde 12205 Berlin
SUBWAY,52.44258,13.29385,HansSachsStraße 4 Lichterfelde 12205 Berlin
Kantine Kolonie Abendruh,52.426318,13.286412,Kleingartenanlage Abendruh Lichterfelde 14167 Berlin
Ristorante Galileo,52.45292,13.28804,OttovonSimsonStraße 26 Dahlem 14195 Berlin
Coffreez,52.44327,13.29465,HansSachsStraße 4D Lichterfelde 12205 Berlin
Tre-Stelle,52.44524,13.29345,Unter den Eichen 96 Lichterfelde 12205 Berlin
Nea Olympia,52.44376,13.28944,Unter den Eichen 88 Lichterfelde 12205 Berlin
Vecchio Mulino,52.44488,13.29497,Drakestraße 36 Lichterfelde 12205 Berlin
House of Mmi,52.451234,13.281803,Löhleinstraße Dahlem 14195 Berlin
Kristall 2 Restaurant,52.44302,13.29701,Drakestraße 33 Lichterfelde 12205 Berlin
Mensa Fu 2,52.45292,13.28804,OttovonSimsonStraße 26 Dahlem 14195 Berlin
Maria & Josef,52.44359,13.29568,HansSachsStraße 5 Lichterfelde 12205 Berlin
Macedonia,52.44336,13.2952,HansSachsStraße 4F Lichterfelde 12205 Berlin
Qwados,52.44562,13.29468,Unter den Eichen 97 Lichterfelde 12203 Berlin
Fatica,52.43413,13.24731,Potsdamer Straße 26 Zehlendorf 14163 Berlin
Vietnams Restaurant,52.45215,13.27077,Clayallee 171 Dahlem 14169 Berlin
Bamboo,52.42864,13.25625,Machnower Straße 23 Zehlendorf 14165 Berlin
The Middle Way,52.42968,13.25995,Teltower Damm 49 Zehlendorf 14167 Berlin
Da Gelo 2,52.43592,13.25701,Potsdamer Straße 6 Zehlendorf 14163 Berlin
Onkel Toms Burger,52.45028,13.25293,Argentinische Allee Zehlendorf 14169 Berlin
Liberty Pizza,52.43577,13.2578,Potsdamer Straße 3 Zehlendorf 14163 Berlin
Walter's Coffey,52.42891,13.25604,Machnower Straße 6 Zehlendorf 14165 Berlin
Mai.88 Vietnamese Kitchen,52.45022,13.2543,Riemeisterstraße Zehlendorf 14169 Berlin
Gartenhaus Cafe,52.43153,13.25781,MartinBuberStraße 1 Zehlendorf 14163 Berlin
Hanoian - Authentic Vietnamese Restaurant,52.4289,13.25945,Teltower Damm 52 Zehlendorf 14167 Berlin
Z88- Gastro,52.44205,13.25132,SvenHedinStraße 85 Zehlendorf 14163 Berlin
Restaurant Dubrovnik,52.43452,13.24962,Potsdamer Straße 33 Zehlendorf 14163 Berlin
La Scuola,52.43592,13.25701,Potsdamer Straße 6 Zehlendorf 14163 Berlin
Trecolori,52.43499,13.25778,MartinBuberStraße 18 Zehlendorf 14163 Berlin
Si,52.43866,13.24953,Fischerhüttenstraße 45 Zehlendorf 14163 Berlin
Nuovo Paladino,52.44111,13.2439,Fischerhüttenstraße 67 Zehlendorf 14163 Berlin
Ado's Cucina,52.42982,13.25991,Teltower Damm 47 Zehlendorf 14167 Berlin
La Mira,52.44524,13.29345,Unter den Eichen 96 Lichterfelde 12205 Berlin
Antipasteria Garbatella,52.43763,13.25735,OnkelTomStraße 21 Zehlendorf 14169 Berlin
Café Tricky,52.4495,13.27557,Garystraße 55 Dahlem 14195 Berlin
Aparthotel Landhaus Lichterfelde mit Remise Anno 1895,52.43899,13.30074,Drakestraße 60 Lichterfelde 12205 Berlin
Da Salvatore,52.44299,13.2973,Gardeschützenweg 142 Lichterfelde 12203 Berlin
Zehlendorfer Hof,52.43412,13.24702,Potsdamer Straße 25 Zehlendorf 14163 Berlin
La Fontana,52.4444,13.29463,Drakestraße 42 Lichterfelde 12205 Berlin
Hirkari Sushi,52.42977,13.2573,Machnower Straße 15 Zehlendorf 14165 Berlin
Eis Azzurra,52.44498,13.29275,Unter den Eichen 94B Lichterfelde 12205 Berlin
Cafe Kauderwelsch,52.45425,13.28842,OttovonSimsonStraße 15 Dahlem 14195 Berlin
Eiscafe Eiskimo,52.44261,13.29508,Curtiusstraße 8 Lichterfelde 12205 Berlin
Asia Fu Loc,52.4289,13.25945,Teltower Damm 52 Zehlendorf 14167 Berlin
Com Bui,52.44843,13.27571,Garystraße 46 Dahlem 14195 Berlin
Shamrock Pub,52.43577,13.2578,Potsdamer Straße 3 Zehlendorf 14163 Berlin
Gelateria Vanilla,52.44369,13.29377,Knesebeckstraße 10 Lichterfelde 12205 Berlin
Kimchi Princess,52.49871,13.42608,Skalitzer Straße 36 Kreuzberg 10999 Berlin
Ankerklause,52.49583,13.42057,Kottbusser Damm 104 Kreuzberg 10967 Berlin
Santa Maria,52.50157,13.41779,Oranienstraße 170 Kreuzberg 10999 Berlin
Defne,52.49513,13.41702,Planufer 92 Kreuzberg 10967 Berlin
Cocolo Ramenbar,52.49606,13.42237,PaulLinckeUfer 39 Kreuzberg 10999 Berlin
3 Schwestern,52.50384,13.42446,Mariannenplatz 2 Kreuzberg 10997 Berlin
Amrit - Kreuzberg,52.49975,13.4244,Oranienstraße 202 Kreuzberg 10999 Berlin
Gorgonzola Club,52.50119,13.41656,Dresdener Straße 121 Kreuzberg 10999 Berlin
Spindler Coffeehouse,52.49626,13.42139,PaulLinckeUfer 43 Kreuzberg 10999 Berlin
So36,52.50035,13.42223,Oranienstraße 190 Kreuzberg 10999 Berlin
Luzia,52.50168,13.41828,Oranienstraße 34 Kreuzberg 10999 Berlin
Chaparro Cocina Mexicana,52.49818,13.42901,Wiener Straße 14A Kreuzberg 10999 Berlin
Maroush,52.50089,13.41882,Adalbertstraße 93 Kreuzberg 10999 Berlin
Adana Grillhaus - Restaurant,52.49951,13.42877,Skalitzer Straße 99 Kreuzberg 10997 Berlin
Chan,52.49626,13.42139,PaulLinckeUfer 43 Kreuzberg 10999 Berlin
Roses Bar - Berlin,52.50052,13.4216,Oranienstraße 187 Kreuzberg 10999 Berlin
Prinzipal Kreuzberg,52.50103,13.41974,Oranienstraße 178 Kreuzberg 10999 Berlin
Burgermeister am Kottbusser Tor,52.49946,13.41854,Kottbusser Tor 136 Kreuzberg 10999 Berlin
Blackbull Grillhouse,52.49858,13.41784,Kottbusser Straße 1 Kreuzberg 10999 Berlin
Der Wurgeengel,52.50108,13.41663,Dresdener Straße 122 Kreuzberg 10999 Berlin
Passion - Asian Kitchen,52.50185,13.41766,Oranienstraße 37 Kreuzberg 10999 Berlin
Iiu Sushi Asia Food,52.5001,13.42405,Oranienstraße Kreuzberg 10997 Berlin
Mon Restaurant,52.50303,13.41514,Oranienplatz 5 Kreuzberg 10999 Berlin
La Raclette,52.49571,13.42741,Lausitzer Straße 34 Kreuzberg 10999 Berlin
La Lucha,52.49617,13.42183,PaulLinckeUfer Kreuzberg 10999 Berlin
Ara Gemuse Kebap,52.49973,13.42699,Manteuffelstraße Kreuzberg 10997 Berlin
Hasir Ocakbasi,52.50087,13.41923,Adalbertstraße 10 Kreuzberg 10999 Berlin
Herzback,52.498997,13.41833,Kottbusser Tor Kreuzberg 10999 Berlin
Morimori Ramen,52.49981,13.4242,Oranienstraße 201 Kreuzberg 10999 Berlin
Musashi,52.49513,13.42106,Kottbusser Damm 102 Neukölln 10967 Berlin
Chocolaterie Art en Chocolat Berlin,52.5024,13.41704,Oranienplatz 15 Kreuzberg 10999 Berlin
Mundvoll,52.50306,13.42086,Waldemarstraße 48 Kreuzberg 10997 Berlin
Ma'Loa Poke Bowl Oranienstrasse,52.50052,13.4216,Oranienstraße 187 Kreuzberg 10999 Berlin
Dresden,52.50157,13.41672,Dresdener Straße 19 Kreuzberg 10999 Berlin
Platz Doch!,52.49831,13.42534,Manteuffelstraße 48 Kreuzberg 10999 Berlin
Tenur,52.49705,13.42588,Reichenberger Straße 147 Kreuzberg 10999 Berlin
Karloff,52.49747,13.42447,Reichenberger Straße 152 Kreuzberg 10999 Berlin
Bulbul Berlin,52.49933,13.42427,Skalitzer Straße 114 Kreuzberg 10999 Berlin
Nano Kaffee Berlin,52.50088,13.41724,Dresdener Straße 14 Kreuzberg 10999 Berlin
Bonanza Coffee Roasters,52.50386,13.42026,Waldemarstraße 37A Kreuzberg 10999 Berlin
Com A,52.50028,13.42245,Oranienstraße 191 Kreuzberg 10999 Berlin
Cedar Shawarma Falafel,52.49947,13.42805,Skalitzer Straße 102 Kreuzberg 10997 Berlin
Zola,52.49606,13.42237,PaulLinckeUfer 39 Kreuzberg 10999 Berlin
Shanti,52.49983,13.42503,Oranienstraße 6 Kreuzberg 10997 Berlin
Zur Kleinen Markthalle,52.503757,13.416169,Legiendamm 32 Kreuzberg 10969 Berlin
Konyali,52.49941,13.41667,Reichenberger Straße 10 Kreuzberg 10999 Berlin
Langano,52.49659,13.41835,Kohlfurter Straße 44 Kreuzberg 10999 Berlin
Tadim Lahmacun,52.4999,13.41762,Adalbertstraße 98 Kreuzberg 10999 Berlin
Imren Grill,52.49856,13.4279,Wiener Straße 10 Kreuzberg 10999 Berlin
Freddy Feys Fish & Fries,52.4996,13.41605,Reichenberger Straße 7 Kreuzberg 10999 Berlin
Moksa,52.49986,13.42401,Oranienstraße 200 Kreuzberg 10999 Berlin
Oez Adana Grillhaus,52.49962,13.4258,Oranienstraße 2A Kreuzberg 10997 Berlin
Mawal,52.50145,13.41909,Oranienstraße 30 Kreuzberg 10999 Berlin
The Burrito Window,52.49976,13.41705,Reichenberger Straße 176 Kreuzberg 10999 Berlin
Wonder Waffel Berlin,52.50173,13.41943,Adalbertstraße 88 Kreuzberg 10997 Berlin
Goldies,52.49983,13.42503,Oranienstraße 6 Kreuzberg 10997 Berlin
Vegan Snackbar 2 by Attila Hildmann,52.50047,13.41893,Adalbertstraße 7 Kreuzberg 10999 Berlin
Soner - Sucuk Doner Berlin,52.49976,13.41705,Reichenberger Straße 176 Kreuzberg 10999 Berlin
Cassonade,52.49991,13.42382,Oranienstraße 199 Kreuzberg 10999 Berlin
Bao Club,52.49948,13.42826,Skalitzer Straße 101 Kreuzberg 10997 Berlin
Pizza Mois,52.49976,13.41705,Reichenberger Straße 176 Kreuzberg 10999 Berlin
Mustafa Demir's Gemuse Kebap,52.50033,13.41884,Adalbertstraße 6 Kreuzberg 10999 Berlin
Bear Burger 2,52.49949,13.42851,Skalitzer Straße 100 Kreuzberg 10997 Berlin
The Visit Coffee Roastery,52.50075,13.41914,Adalbertstraße 9 Kreuzberg 10999 Berlin
Bep Thoc - Asian Street Food,52.49534,13.42031,Kottbusser Damm 1 Kreuzberg 10967 Berlin
Mercosy,52.50059,13.41746,Dresdner Straße 11 Kreuzberg 10999 Berlin
Chez Michel,52.50259,13.42004,Adalbertstraße 83 Kreuzberg 10997 Berlin
Mirchi - Kreuzberg,52.49963,13.42483,Oranienstraße 204 Kreuzberg 10999 Berlin
Cu Ty,52.49898,13.42823,Wiener Straße 69 Kreuzberg 10999 Berlin
Cutie PIE,52.49763,13.42889,Lausitzer Straße 8 Kreuzberg 10999 Berlin
Ottorink,52.50088,13.41679,Dresdener Straße 124 Kreuzberg 10999 Berlin
Sudblock,52.49825,13.41666,Admiralstraße 2 Kreuzberg 10999 Berlin
Hamburger Heaven,52.49535,13.41981,Graefestraße 93 Kreuzberg 10967 Berlin
Trinkteufel,52.50206,13.42021,Naunynstraße 60 Kreuzberg 10997 Berlin
Bateau Ivre,52.50051,13.42256,Oranienstraße 18 Kreuzberg 10999 Berlin
Cevicheria,52.50129,13.41648,Dresdener Straße 120 Kreuzberg 10999 Berlin
Cafe Morgenstern,52.49751,13.41593,Kohlfurter Straße 13 Kreuzberg 10999 Berlin
Schnapphahn,52.50088,13.41724,Dresdener Straße 14 Kreuzberg 10999 Berlin
Falafel in Berlin.De,52.49947,13.42805,Skalitzer Straße 102 Kreuzberg 10997 Berlin
Taka Fish House,52.49994,13.4179,Adalbertstraße 97 Kreuzberg 10999 Berlin
Değirmen Ocakbaşı-Restaurant,52.49543,13.42086,Kottbusser Damm 103A Neukölln 10967 Berlin
Izmir Koeftecisi Konak Grill,52.49941,13.41667,Reichenberger Straße 10 Kreuzberg 10999 Berlin
Bal Köfteci,52.49498,13.42115,Kottbusser Damm 101 Neukölln 10967 Berlin
Safran,52.50145,13.4182,Oranienstraße 172 Kreuzberg 10999 Berlin
Chocolateria Sunde,52.49998,13.42265,Oranienstraße 194 Kreuzberg 10999 Berlin
Rote Laterne,52.50162,13.41848,Oranienstraße 33 Kreuzberg 10999 Berlin
Fuchsbau,52.49567,13.41932,Planufer 96 Kreuzberg 10967 Berlin
Cosmoveda,52.50015,13.41929,Adalbertstraße 6A Kreuzberg 10999 Berlin
Kumpel & Keule Speisewirtschaft,52.499577,13.429401,Skalitzer Straße Kreuzberg 10997 Berlin
Schwestern,52.50384,13.42446,Mariannenplatz Kreuzberg 10997 Berlin
Misir Carsisi,52.4993,13.41946,Skalitzer Straße 134 Kreuzberg 10999 Berlin
Freshdays,52.49945,13.42779,Skalitzer Straße 103 Kreuzberg 10997 Berlin
Pho - Noodlebar (Kreuzberg),52.50075,13.41914,Adalbertstraße 9 Kreuzberg 10999 Berlin
Green Rice,52.50097,13.4193,Adalbertstraße 11 Kreuzberg 10999 Berlin
Angry Chicken,52.49913,13.42722,Oranienstraße Kreuzberg 10999 Berlin
Pattaya II,52.49898,13.42823,Wiener Straße 69 Kreuzberg 10999 Berlin
Ekt Affentanz,52.5007,13.4236,Mariannenstraße 47 Kreuzberg 10997 Berlin
Musachi,52.49513,13.42106,Kottbusser Damm 102 Neukölln 10967 Berlin
Brandenburger,52.5024,13.42031,Adalbertstraße 19 Kreuzberg 10997 Berlin
Hasir Gastronomie Nürnberger Str.,52.5011,13.41949,Oranienstraße 177 Kreuzberg 10999 Berlin
Foodtruck Rhinstrasse,52.53046,13.51621,Rhinstraße 137 Lichtenberg 10315 Berlin
"Mcs Management, Catering Servicegesellschaft",52.5251,13.52681,Allee der Kosmonauten 28 Biesdorf 12681 Berlin
Restaurant Arizona,52.53407,13.51697,Rhinstraße 161 Lichtenberg 10315 Berlin
Tabbouleh Libanesische Spezialitäten Cateringservice,52.52634,13.53298,Marzahner Chaussee 205 Biesdorf 12681 Berlin
Play Off Berlin,52.53726,13.53815,Märkische Allee Marzahn 12681 Berlin
Cafe Restaurant Regina,52.53656,13.54487,Am Schmeding 5 Marzahn 12685 Berlin
Profam-gemeinnützige,52.5282,13.54309,Allee der Kosmonauten 69 Biesdorf 12681 Berlin
Asia & Sushi,52.52393,13.54358,Marchwitzastraße 31 Biesdorf 12681 Berlin
American Bowl,52.5419,13.54172,Märkische Allee 176 Marzahn 12681 Berlin
Lemon Bar Marzahn,52.52393,13.54358,Marchwitzastraße 31 Biesdorf 12681 Berlin
Ristorante BB Paparazzi,52.53605,13.54282,BrunoBaumStraße 71 Marzahn 12685 Berlin
Marzahner Discotheken GmbH & Co,52.5419,13.54172,Märkische Allee 176 Marzahn 12681 Berlin
Allee Bistro,52.535039,13.497049,Landsberger Allee 277 AltHohenschönhausen 13055 Berlin
Thanh Koch,52.52656,13.49834,Herzbergstraße 104 Lichtenberg 10365 Berlin
Strohhut,52.51667,13.52742,Marzahner Chaussee 85 Biesdorf 12681 Berlin
Kochmutze,52.53382,13.503571,Landsberger Allee 320 Lichtenberg 10365 Berlin
Pizza Piraten,52.52931,13.49976,Siegfriedstraße 146 Lichtenberg 10365 Berlin
Long Food,52.53471,13.49595,Landsberger Allee 277 AltHohenschönhausen 13055 Berlin
Bamboo,52.51347,13.51794,Rhinstraße 17 Friedrichsfelde 10315 Berlin
Antica Pizzacheria,52.51667,13.52742,Marzahner Chaussee 85 Biesdorf 12681 Berlin
Hong Phuc - Restaurant,52.53573,13.49746,Genslerstraße 36 AltHohenschönhausen 13055 Berlin
King Wok - le Prom,52.5419,13.54172,Märkische Allee 176 Marzahn 12681 Berlin
Kochmütze,52.517,13.54082,Märkische Spitze 13 Biesdorf 12681 Berlin
Musikcafe,52.53762,13.49607,Neustrelitzer Straße 63 AltHohenschönhausen 13055 Berlin
Polizeikantine Marzahn Dir.6,52.53554,13.5379,Märkische Allee 174 Marzahn 12681 Berlin
Mones Bistro,52.54575,13.51604,Plauener Straße AltHohenschönhausen 13053 Berlin
Akropolis,52.52822,13.5401,HeleneWeigelPlatz 7 Biesdorf 12681 Berlin
Mac's Bistro,52.5134,13.52229,Seddiner Straße 8 Friedrichsfelde 10315 Berlin
Menüpartner,52.54322,13.51571,Plauener Straße 161 AltHohenschönhausen 13053 Berlin
Hard Rock CAFE,52.50318,13.32973,Kurfürstendamm 224 Charlottenburg 10719 Berlin
Marjellchen,52.50319,13.31764,Mommsenstraße 9 Charlottenburg 10629 Berlin
Bier's Kudamm 195,52.5011,13.31829,Kurfürstendamm 195 Charlottenburg 10707 Berlin
Billard International,52.50125,13.32143,Knesebeckstraße 38 Charlottenburg 10719 Berlin
Berliner Kaffeerösterei,52.50139,13.32539,Uhlandstraße 173 Charlottenburg 10719 Berlin
Christopher's,52.50297,13.31632,Mommsenstraße 63 Charlottenburg 10629 Berlin
Sets,52.50255,13.31673,Schlüterstraße 36 Charlottenburg 10629 Berlin
Est.,52.50118,13.3292,Meinekestraße 20 Charlottenburg 10719 Berlin
The Catch,52.5032,13.31993,Bleibtreustraße 41 Charlottenburg 10623 Berlin
Lowkal,52.49605,13.32252,Pfalzburger Straße 72 Wilmersdorf 10719 Berlin
Nata Lisboa   Berlim,52.49873,13.31683,Pariser Straße 24 Wilmersdorf 10707 Berlin
Casa di Maria,52.49673,13.32446,Uhlandstraße 149 Wilmersdorf 10719 Berlin
Black & White,52.50113,13.32534,Uhlandstraße 171 Charlottenburg 10719 Berlin
Cafe Lebensart,52.49761,13.3241,Uhlandstraße 47 Wilmersdorf 10719 Berlin
Haagen-Dazs,52.50254,13.32378,Kurfürstendamm 35 Charlottenburg 10719 Berlin
Marooush,52.50158,13.32151,Knesebeckstraße 38 Charlottenburg 10719 Berlin
Maredo Steakhaus,52.50243,13.32628,Kurfürstendamm 214 Charlottenburg 10719 Berlin
Sushi Em,52.4973,13.32045,Emser Straße 25 Wilmersdorf 10719 Berlin
Adéle's Café Lita,52.50386,13.32549,Uhlandstraße 184 Charlottenburg 10623 Berlin
George's Steakhouse,52.49763,13.32464,Uhlandstraße 153 Wilmersdorf 10719 Berlin
Epoque,52.50395,13.32246,Knesebeckstraße 76 Charlottenburg 10623 Berlin
Seegert's Weinrestaurant,52.49707,13.32041,Emser Straße 24 Wilmersdorf 10719 Berlin
Hummus Room,52.50048,13.32131,Knesebeckstraße 48 Charlottenburg 10719 Berlin
Nah am Wasser,52.50395,13.32246,Knesebeckstraße 76 Charlottenburg 10623 Berlin
Viet Bowl,52.49841,13.32482,Uhlandstraße 156 Wilmersdorf 10719 Berlin
Ristorante da Toni,52.49825,13.31911,Pariser Straße 18A Wilmersdorf 10707 Berlin
Brasserie le Paris,52.50213,13.3247,Kurfürstendamm 211 Charlottenburg 10719 Berlin
Café-Restaurant Wintergarten im Literaturhaus,52.50212,13.32684,Fasanenstraße 23 Charlottenburg 10719 Berlin
Schildkrote,52.50209,13.32549,Kurfürstendamm 212 Charlottenburg 10719 Berlin
Kuchel-Eck,52.49798,13.32232,Ludwigkirchplatz 1 Wilmersdorf 10719 Berlin
Grune Lampe,52.49649,13.32387,Uhlandstraße 51 Wilmersdorf 10719 Berlin
Restaurante Serrano,52.49884,13.32302,Pfalzburger Straße 83 Wilmersdorf 10719 Berlin
Factory,52.49973,13.32264,Lietzenburger Straße 85 Wilmersdorf 10719 Berlin
Pincho Nation,52.50166,13.32927,Meinekestraße 22 Charlottenburg 10719 Berlin
La Caleta,52.50009,13.31516,Wielandstraße 26 Charlottenburg 10707 Berlin
Handoyo's - Sate & Coffee,52.49801,13.32199,Ludwigkirchplatz 2 Wilmersdorf 10719 Berlin
Mine Wine,52.50079,13.32866,Meinekestraße 10 Charlottenburg 10719 Berlin
The Fox Bar,52.50268,13.32227,Knesebeckstraße 67 Charlottenburg 10623 Berlin
Ludwig,52.49763,13.3235,Ludwigkirchstraße 10 Wilmersdorf 10719 Berlin
Trattoria Aurora,52.5032,13.32235,Knesebeckstraße 70 Charlottenburg 10623 Berlin
Namaste,52.49621,13.32742,Pariser Straße 56 Wilmersdorf 10719 Berlin
Inizio Ristorante Bar,52.50382,13.32785,Fasanenstraße 77 Charlottenburg 10623 Berlin
Cafe Sidney Berlin,52.49841,13.31835,Pariser Straße 19 Wilmersdorf 10707 Berlin
Trattoria Pizzeria da Luca,52.50006,13.31947,Bleibtreustraße 30 Charlottenburg 10707 Berlin
Blueberry Coffees,52.50062,13.32523,Uhlandstraße 167 Charlottenburg 10719 Berlin
Calcutta Restaurant Berlin,52.50324,13.3195,Bleibtreustraße 17 Charlottenburg 10623 Berlin
Cassambalis Taverna,52.50351,13.32409,Grolmanstraße 35 Charlottenburg 10623 Berlin
Route 66,52.49783,13.3196,Pariser Straße 44 Wilmersdorf 10707 Berlin
Grace Bar,52.50362,13.32917,Kurfürstendamm 25 Charlottenburg 10719 Berlin
Absetzbar,52.503,13.31575,Mommsenstraße 61 Charlottenburg 10629 Berlin
Sweet2go,52.49805,13.32288,Pfalzburger Straße 79 Wilmersdorf 10719 Berlin
Ristorante-Arlecchino,52.50235,13.32938,Meinekestraße 25 Charlottenburg 10719 Berlin
Call A Pizza,52.4953,13.32786,Hohenzollerndamm 7 Wilmersdorf 10717 Berlin
Kaffeehaus Mila,52.50374,13.32445,Grolmanstraße 40 Charlottenburg 10623 Berlin
"Tommi's Burger Joint, Kudamm",52.50209,13.32549,Kurfürstendamm 212 Charlottenburg 10719 Berlin
I-Ke-Su,52.49855,13.32485,Uhlandstraße 157 Wilmersdorf 10719 Berlin
Pizza Factory,52.49794,13.3191,Pariser Straße 42 Wilmersdorf 10707 Berlin
Friends Cocktailbar,52.49827,13.31751,Pariser Straße 38 Wilmersdorf 10707 Berlin
Diekmann,52.50134,13.32875,Meinekestraße 7 Charlottenburg 10719 Berlin
Rum Trader,52.49848,13.32665,Fasanenstraße 40 Wilmersdorf 10719 Berlin
Miro,52.50025,13.32474,Uhlandstraße 33 Charlottenburg 10719 Berlin
Nixx,52.50395,13.32186,Knesebeckstraße 29 Charlottenburg 10623 Berlin
1900 Cafe Bistro,52.50395,13.32246,Knesebeckstraße 76 Charlottenburg 10623 Berlin
Don Quijote,52.5032,13.31993,Bleibtreustraße 41 Charlottenburg 10623 Berlin
Khon Thai,52.49564,13.32426,Uhlandstraße 144 Wilmersdorf 10719 Berlin
Cyclo,52.49847,13.31904,Sächsische Straße 72 Wilmersdorf 10707 Berlin
Klemke Wein,52.50319,13.31764,Mommsenstraße 9 Charlottenburg 10629 Berlin
Luardi,52.50212,13.32934,Meinekestraße 24 Charlottenburg 10719 Berlin
Wintergarten im Literaturhaus,52.50212,13.32684,Fasanenstraße 23 Charlottenburg 10719 Berlin
Markus Semmler,52.49753,13.31834,Sächsische Straße 7 Wilmersdorf 10707 Berlin
May,52.49983,13.32437,Lietzenburger Straße 77 Wilmersdorf 10719 Berlin
Shan's Kitchen,52.5011,13.31829,Kurfürstendamm 195 Charlottenburg 10707 Berlin
Ojo de Agua,52.49763,13.3235,Ludwigkirchstraße 10 Wilmersdorf 10719 Berlin
Annalee,52.50324,13.3195,Bleibtreustraße 17 Charlottenburg 10623 Berlin
Paulo Scutarro,52.50177,13.31729,Kurfürstendamm 51 Charlottenburg 10707 Berlin
Soupkultur,52.50318,13.32973,Kurfürstendamm 224 Charlottenburg 10719 Berlin
Privileg Club Berlin,52.49869,13.31721,Pariser Straße 23 Wilmersdorf 10707 Berlin
Mantovani,52.50125,13.32489,Uhlandstraße 29 Charlottenburg 10719 Berlin
Boujee,52.4982,13.31934,Pariser Straße 18 Wilmersdorf 10707 Berlin
Capone Berlin,52.5016,13.32126,Kurfürstendamm 202 Charlottenburg 10719 Berlin
Café Bistro Shaniu,52.49621,13.32742,Pariser Straße 56 Wilmersdorf 10719 Berlin
Fasanen 47,52.49606,13.32666,Fasanenstraße 47 Wilmersdorf 10719 Berlin
Trattoria Venezia,52.50167,13.32549,Uhlandstraße 175 Charlottenburg 10719 Berlin
La Cantina,52.50324,13.3195,Bleibtreustraße 17 Charlottenburg 10623 Berlin
Meetyou - China Restaurant,52.49794,13.32661,Fasanenstraße 41 Wilmersdorf 10719 Berlin
Ristorante & Vinobar Calibocca,52.50393,13.31694,Schlüterstraße 30 Charlottenburg 10629 Berlin
Taim,52.49855,13.32485,Uhlandstraße 157 Wilmersdorf 10719 Berlin
Spice India,52.4993,13.32502,Uhlandstraße 161 Wilmersdorf 10719 Berlin
Grand Cafe Cappuccino by Petroccelli,52.50299,13.32172,Knesebeckstraße 3334 Charlottenburg 10623 Berlin
Adnan,52.50336,13.31685,Schlüterstraße 33 Charlottenburg 10629 Berlin
Restaurant Otavio,52.50395,13.32186,Knesebeckstraße 29 Charlottenburg 10623 Berlin
Zum Patzenhofer,52.50259,13.32942,Meinekestraße 26 Charlottenburg 10719 Berlin
Oshima Sushi,52.49822,13.31776,Pariser Straße 39 Wilmersdorf 10707 Berlin
Monarch,52.50013,13.3238,Lietzenburger Straße 78 Charlottenburg 10719 Berlin
Weinkost,52.49733,13.32346,Pariser Straße 15 Wilmersdorf 10719 Berlin
Sushi Berlin,52.49783,13.3196,Pariser Straße 44 Wilmersdorf 10707 Berlin
Piccola Taormina,52.50125,13.32489,Uhlandstraße 29 Charlottenburg 10719 Berlin
Hamlet,52.49761,13.3241,Uhlandstraße 47 Wilmersdorf 10719 Berlin
Trattoria Casa Lucariello,52.49716,13.31994,Emser Straße 42 Wilmersdorf 10719 Berlin
Cell.Restaurant,52.50122,13.32535,Uhlandstraße 172 Charlottenburg 10719 Berlin
Restaurant Schwarz Weiß,52.37835,13.62207,Uhlandallee 15732 Eichwalde
Ratskeller Santorini,52.37373,13.61985,Bahnhofstraße 12 15732 Eichwalde
Luari,52.37272,13.62159,Grünauer Straße 47 15732 Eichwalde
Mayas,52.37361,13.62059,Grünauer Straße 51 15732 Eichwalde
Aao Ji,52.37397,13.61967,Bahnhofstraße 76 15732 Eichwalde
Ristorante Pizzeria Villa Rossano,52.37184,13.61396,Schulzendorfer Straße 1 15732 Eichwalde
Pizza-Europa Express Eichwalde,52.3725,13.61541,Bahnhofstraße 15732 Eichwalde
Marios-Eicafe,52.37419,13.62029,Bahnhofstraße 75 15732 Eichwalde
Trattoria Pane E Vino,52.37272,13.62159,Grünauer Straße 47 15732 Eichwalde
Restaurant Karolinenhof,52.3883,13.64018,Rohrwallallee 87 Schmöckwitz 12527 Berlin
Winkel's Eiscafe,52.37873,13.64517,Adlergestell 751 Schmöckwitz 12527 Berlin
Villa Toscana - Ristorante Pizzeria,52.37602,13.64885,Adlergestell 785 Schmöckwitz 12527 Berlin
Norbert Müller - Bistro & Getränke,52.36968,13.60713,RudolfBreitscheidStraße 9 15732 Schulzendorf
Lino Restaurant & Sushi Bar,52.37296,13.60241,KarlMarxStraße 18 15732 Schulzendorf
Weingewolbe Berlin,52.43742,13.37635,Lankwitzer Straße 39 Mariendorf 12107 Berlin
Damaskus Chicken,52.43493,13.37867,Großbeerenstraße 49 Mariendorf 12107 Berlin
Castello Lieferservice,52.43583,13.36928,Lankwitzer Straße 1 Mariendorf 12107 Berlin
Marios Imbiss,52.43665,13.37274,Lankwitzer Straße 8 Mariendorf 12107 Berlin
Mr. Tran,52.43649,13.37164,Lankwitzer Straße 4 Mariendorf 12107 Berlin
Dogtap,52.43824,13.36802,Im Marienpark 23 Mariendorf 12107 Berlin
Sushi-Thai-China,52.43604,13.37941,Großbeerenstraße 33 Mariendorf 12107 Berlin
Trattoria,52.43488,13.378262,Körtingstraße Mariendorf 12107 Berlin
Due Fratelli,52.43531,13.37802,Großbeerenstraße Mariendorf 12107 Berlin
Sushi - Asia Spezialitäten,52.43604,13.37941,Großbeerenstraße 33 Mariendorf 12107 Berlin
Remise No. 1,52.44473,13.38569,Mariendorfer Damm 90 Mariendorf 12109 Berlin
Domino's Pizza,52.44358,13.38647,Mariendorfer Damm 103 Mariendorf 12109 Berlin
Rice & More,52.43454,13.37849,Großbeerenstraße 51 Mariendorf 12107 Berlin
Kneipe Wallenstein,52.4432,13.38335,Prühßstraße 31 Mariendorf 12105 Berlin
Villa Lakerda,52.43999,13.38461,AltMariendorf 46 Mariendorf 12107 Berlin
Aristoteles,52.44657,13.37878,Königstraße 44 Mariendorf 12105 Berlin
Mariannes Imbiss 2.0,52.44432,13.38576,Mariendorfer Damm 94 Mariendorf 12109 Berlin
Hai! Sushi,52.44725,13.38571,Mariendorfer Damm 61 Mariendorf 12109 Berlin
Marrashan,52.4436,13.38583,Mariendorfer Damm 96 Mariendorf 12109 Berlin
Kebab House,52.44574,13.38513,Kaiserstraße 109 Mariendorf 12105 Berlin
Cafe Tulipes,52.44503,13.37496,Kaiserstraße 6 Mariendorf 12105 Berlin
Yosi's Ess Station,52.44572,13.3797,Rathausstraße 77 Mariendorf 12105 Berlin
Landhaus Alt-Mariendorf,52.43951,13.38481,AltMariendorf 45 Mariendorf 12107 Berlin
Roma,52.44487,13.3746,Gersdorfstraße 65 Mariendorf 12105 Berlin
Vodafone Aramark Kantine,52.44763,13.36201,Attilastraße 61 Tempelhof 12105 Berlin
Gaumenschmaus Hähnchengrill,52.4384,13.37982,Großbeerenstraße 2 Mariendorf 12107 Berlin
My Burger Mariendorf,52.44509,13.38612,Mariendorfer Damm 85 Mariendorf 12109 Berlin
Curry Island,52.43351,13.37709,Großbeerenstraße 82 Mariendorf 12277 Berlin
Ristobar Lopez,52.44534,13.38559,Mariendorfer Damm 82 Mariendorf 12109 Berlin
La Rosa,52.4436,13.38583,Mariendorfer Damm 96 Mariendorf 12109 Berlin
China Snack,52.43851,13.38307,Forddamm 7 Mariendorf 12107 Berlin
Restaurant und Eiscafe Tiamo,52.44568,13.3842,Kaiserstraße 112 Mariendorf 12105 Berlin
Tandoori Nawab,52.44343,13.38593,Mariendorfer Damm 100 Mariendorf 12109 Berlin
Bistro Imbiss Ossowski,52.44712,13.36127,Attilastraße 68 Tempelhof 12105 Berlin
Café Kaiserhütte,52.44568,13.3842,Kaiserstraße 112 Mariendorf 12105 Berlin
Balkan Grillhaus,52.44473,13.38569,Mariendorfer Damm 90 Mariendorf 12109 Berlin
Bardolino,52.43387,13.3592,Kamenzer Damm 31 Lankwitz 12249 Berlin
Zum Bistro,52.43427,13.35829,Kamenzer Damm 31 Lankwitz 12249 Berlin
Burger Hütte,52.44725,13.38571,Mariendorfer Damm 61 Mariendorf 12109 Berlin
Chicken House,52.44783,13.38575,Eisenacher Straße 1 Mariendorf 12109 Berlin
Basileus Pizza,52.44718,13.38523,Mariendorfer Damm 62 Mariendorf 12109 Berlin
Bücherzimmer Café,52.43387,13.3592,Wedellstraße 31 Lankwitz 12249 Berlin
Ducky's,52.44231,13.38629,Mariendorfer Damm 112 Mariendorf 12109 Berlin
Call To Eat,52.43816,13.38324,Friedenstraße 7 Mariendorf 12107 Berlin
By Miran's,52.44372,13.38638,Mariendorfer Damm 101 Mariendorf 12109 Berlin
Golden Gemüse Kebap,52.44372,13.38638,Mariendorfer Damm 101 Mariendorf 12109 Berlin
Curry-Kiste,52.445607,13.3863,Westphalweg Mariendorf 12109 Berlin
La Piazza,52.44456,13.37823,Riegerzeile 1 Mariendorf 12105 Berlin
Weltkugel Cocktail Lounge,52.44372,13.38638,Mariendorfer Damm 101 Mariendorf 12109 Berlin
Kebap House,52.44358,13.38647,Mariendorfer Damm 103 Mariendorf 12109 Berlin
Hallo Pizza!,52.44358,13.38647,Mariendorfer Damm 103 Mariendorf 12109 Berlin
Redo XXL,52.45451,13.384853,Tempelhofer Damm 227 Tempelhof 12099 Berlin
Pomodori Tempelhof,52.45467,13.38455,Tempelhofer Damm 227 Tempelhof 12099 Berlin
Restaurant Arkade,52.45186,13.3787,Rathausstraße 100 Mariendorf 12105 Berlin
Centro Italia,52.42808,13.37739,Großbeerenstraße 171 Mariendorf 12277 Berlin
La Sanata Lucha,52.453083,13.377721,Alarichstraße Tempelhof 12105 Berlin
Puppen Cafe,52.45034,13.38464,Mariendorfer Damm 30 Mariendorf 12109 Berlin
Hazienda-Steakhouse,52.43847,13.38757,Mariendorfer Damm 144 Mariendorf 12107 Berlin
Porto - Restaurant - Cafe - Eis - Bar,52.45467,13.38455,Tempelhofer Damm 227 Tempelhof 12099 Berlin
City Casino,52.43693,13.38885,Mariendorfer Damm 165 Mariendorf 12107 Berlin
Happy Mini Pizza,52.43881,13.38841,Reißeckstraße Mariendorf 12107 Berlin
La Sirena,52.4553,13.37466,Attilastraße 1 Tempelhof 12105 Berlin
Pizza Max,52.45571,13.38268,FriedrichKarlStraße 5 Tempelhof 12103 Berlin
Park-Cafe,52.44065,13.39641,Rixdorfer Straße 165 Mariendorf 12109 Berlin
Cafe Makara,52.44982,13.38534,Mariendorfer Damm 35 Mariendorf 12109 Berlin
Gatto Nero,52.45276,13.37126,Marienhöher Weg 1 Tempelhof 12105 Berlin
Salitos Beach Berlin,52.45467,13.38455,Tempelhofer Damm 227 Tempelhof 12099 Berlin
Muncheese,52.45584,13.38057,FriedrichKarlStraße 17 Tempelhof 12103 Berlin
Becerro,52.44833,13.3849,Mariendorfer Damm 50 Mariendorf 12109 Berlin
Vereinsheim Rixdorfer,52.44364,13.39818,Rixdorfer Straße 130 Mariendorf 12109 Berlin
New Ocean,52.4361,13.38929,Mariendorfer Damm 175 Mariendorf 12107 Berlin
Inside Asia,52.45467,13.38455,Tempelhofer Damm 227 Tempelhof 12099 Berlin
Antikstuben im Kunigundeneck,52.45516,13.38054,Kunigundenstraße 1 Tempelhof 12105 Berlin
Das Teehaus Mariendorf,52.431138,13.391364,Mariendorfer Damm 222 Mariendorf 12107 Berlin
Mundo,52.44048,13.3876,AltMariendorf 32 Mariendorf 12107 Berlin
Cancun Restaurant,52.43847,13.38757,Mariendorfer Damm 144 Mariendorf 12107 Berlin
Motel Blue Süd,52.43693,13.38885,Mariendorfer Damm 165 Mariendorf 12107 Berlin
Piro Espressobar,52.45573,13.3824,FriedrichKarlStraße 7 Tempelhof 12103 Berlin
Mr.M's Burger,52.45283,13.37808,Alarichstraße 12 Tempelhof 12105 Berlin
Bei Radi,52.44582,13.39005,Westphalweg 28 Mariendorf 12109 Berlin
Cafe Ole,52.45478,13.38105,Viktoriastraße 10 Tempelhof 12105 Berlin
Restaurant Pußta Grill,52.42654,13.37381,Großbeerenstraße 198 Marienfelde 12277 Berlin
Nuova Masseria,52.42393,13.37168,Marienfelder Allee 20 Marienfelde 12277 Berlin
Sushi For You,52.42312,13.37099,Marienfelder Allee 24A Marienfelde 12277 Berlin
Jorg's Curry Container,52.42205,13.3714,Hranitzkystraße 15 Marienfelde 12277 Berlin
Cafe Pascha,52.44846,13.35689,Steglitzer Damm 106 Steglitz 12169 Berlin
Mc Curry,52.43591,13.3469,PaulSchneiderStraße 5 Lankwitz 12247 Berlin
La Montanara,52.43884,13.34411,Leonorenstraße 71 Lankwitz 12247 Berlin
Dua do Restaurant,52.43591,13.3469,PaulSchneiderStraße 5 Lankwitz 12247 Berlin
Dai Gemüse Kebap,52.43667,13.34565,Leonorenstraße 99 Lankwitz 12247 Berlin
Mobil Point Berlin Lankwitz,52.43591,13.3469,PaulSchneiderStraße 5 Lankwitz 12247 Berlin
Bei Maria,52.44142,13.35357,KaiserWilhelmStraße 129 Lankwitz 12247 Berlin
La Ronda,52.44911,13.35243,Steglitzer Damm 90 Steglitz 12169 Berlin
Surf Inn,52.43672,13.34606,KaiserWilhelmStraße 82 Lankwitz 12247 Berlin
Kimchi Heim,52.4496,13.34854,Steglitzer Damm 72 Steglitz 12169 Berlin
Marco Polo,52.42939,13.35183,Beselerstraße 1 Lankwitz 12249 Berlin
Villa Christina,52.43979,13.38806,Mariendorfer Damm 131 Mariendorf 12107 Berlin
Eiscafé Malibu,52.43896,13.34434,Leonorenstraße 71A Lankwitz 12247 Berlin
Il Pavone,52.44168,13.35395,KaiserWilhelmStraße 129A Lankwitz 12247 Berlin
Roden,52.43495,13.46945,Johannisthaler Chaussee 210 Buckow 12351 Berlin
Recke's Britzer Wiesen,52.442831,13.467868,Stachelbeerweg Britz 12359 Berlin
Elvan Grillhaus,52.43141,13.4614,FritzErlerAllee 61 Buckow 12351 Berlin
Villa Fellini,52.44071,13.45911,Rudower Straße 35 Buckow 12351 Berlin
Panda,52.4322,13.47464,Rudower Straße 173 Buckow 12351 Berlin
Pizza Max,52.44316,13.45727,Goldhähnchenweg 2 Buckow 12359 Berlin
Haci Baba,52.43236,13.46212,Johannisthaler Chaussee 259 Buckow 12351 Berlin
Giuseppe,52.44137,13.45906,Rudower Straße 27 Buckow 12351 Berlin
Curry Schmidt,52.44205,13.45759,Rudower Straße 13 Buckow 12351 Berlin
Da Capo,52.43715,13.463585,Rudower Straße 82 Buckow 12351 Berlin
Hanabi,52.43271,13.47211,Rudower Straße 156A Gropiusstadt 12351 Berlin
Tequila Steakhaus,52.43743,13.46265,Zadekstraße 1 Buckow 12351 Berlin
Ristorante Il Monte,52.4322,13.47464,Rudower Straße 173 Buckow 12351 Berlin
Natürlich&Schön,52.4395,13.46031,Rudower Straße 51 Buckow 12351 Berlin
Asia Imbiss,52.44086,13.45956,Möwenweg 42 Buckow 12359 Berlin
Gyros Express,52.44205,13.45759,Rudower Straße 13 Buckow 12351 Berlin
Wirtshaus Heide am Wasser,52.443737,13.484369,Heideweg Johannisthal 12487 Berlin
Gyros Express,52.43274,13.46083,Johannisthaler Chaussee 264 Gropiusstadt 12351 Berlin
Bei Lu,52.43223,13.46173,Johannisthaler Chaussee 261 Buckow 12351 Berlin
Eisbar,52.44186,13.45785,Rudower Straße 15 Buckow 12351 Berlin
Pointoo Mexikanische Spezialitäten,52.444935,13.481515,Heideweg Johannisthal 12487 Berlin
Reckes Britzer Wiesen,52.44576,13.46142,Parchimer Allee 3 Britz 12359 Berlin
Goldhähnchen,52.44236,13.45719,Rudower Straße 7 Buckow 12351 Berlin
Pizza Goldammer,52.43233,13.46842,Goldammerstraße 34 Gropiusstadt 12351 Berlin
Ristorante Cuore Salentino,52.42695,13.48212,Neuköllner Straße 243 Rudow 12357 Berlin
Coffee Fellows,52.42933,13.45527,Johannisthaler Chaussee 317 Gropiusstadt 12351 Berlin
Thai Imbiss Sawaddi,52.4248,13.4868,Stubenrauchstraße 129 Rudow 12357 Berlin
China Restaurant Reuter Terrassen,52.44497,13.45474,Buschkrugallee 226 Britz 12359 Berlin
Café Cafeteria Wernicke,52.42933,13.45527,Johannisthaler Chaussee 317 Gropiusstadt 12351 Berlin
Immergrün,52.42933,13.45527,Johannisthaler Chaussee 317 Gropiusstadt 12351 Berlin
Jadera,52.43263,13.45392,OttoWelsRing 22 Gropiusstadt 12351 Berlin
Wawel,52.42695,13.48212,Neuköllner Straße 243 Rudow 12357 Berlin
Kentucky Fried Chicken,52.42933,13.45527,Johannisthaler Chaussee 317 Gropiusstadt 12351 Berlin
Al Teatro,52.429643,13.45514,Johannisthaler Chaussee 307 Gropiusstadt 12351 Berlin
Sonnenblick,52.42784,13.46914,Lipschitzallee 33 Gropiusstadt 12351 Berlin
BURGER KING,52.43006,13.45569,Johannisthaler Chaussee Gropiusstadt 12351 Berlin
Pizza Europa,52.42941,13.45733,Johannisthaler Chaussee 297 Gropiusstadt 12351 Berlin
Zum Hufeisen,52.44797,13.44963,FritzReuterAllee 48 Britz 12359 Berlin
BURGER KING,52.43026,13.45597,Johannisthaler Chaussee 295 Gropiusstadt 12351 Berlin
Pizzeria Bella Amore,52.43962,13.45346,Grüner Weg 61 Buckow 12359 Berlin
Hofcafe Spaeth,52.45428,13.47322,Späthstraße 80 Baumschulenweg 12437 Berlin
Thai Nippon Bar,52.429142,13.456647,Johannisthaler Chaussee 307 Gropiusstadt 12351 Berlin
Waffle Brothers Gropius,52.43061,13.45513,Johannisthaler Chaussee 312 Gropiusstadt 12351 Berlin
Eiscafé Russillo,52.42941,13.45733,Johannisthaler Chaussee 297 Gropiusstadt 12351 Berlin
Wurst & Würstchen,52.429186,13.455206,Johannisthaler Chaussee Gropiusstadt 12351 Berlin
Chidoba Mexican Grill,52.42933,13.45527,Johannisthaler Chaussee 317 Gropiusstadt 12351 Berlin
Pan,52.42933,13.45527,Johannisthaler Chaussee 317 Gropiusstadt 12351 Berlin
Vegan Berlin,52.43676,13.44743,Gutschmidtstraße 19 Britz 12359 Berlin
Huy Long Sushi,52.44408,13.44961,FritzReuterAllee Britz 12359 Berlin
Arno's Imbiss,52.437211,13.447727,FritzReuterAllee 183 Britz 12359 Berlin
KFC,52.42996,13.45607,Johannisthaler Chaussee Gropiusstadt 12351 Berlin
Clubsmühle,52.42761,13.48116,Neuköllner Straße 233 Rudow 12357 Berlin
Hue Snack,52.42982,13.45495,Johannisthaler Chaussee 307 Gropiusstadt 12351 Berlin
Pizza Hut,52.43026,13.45597,Johannisthaler Chaussee 295 Gropiusstadt 12351 Berlin
Lebkuchen Schmidt,52.42933,13.45527,Johannisthaler Chaussee 317 Gropiusstadt 12351 Berlin
Rigoletto,52.42745,13.48137,Neuköllner Straße 235 Rudow 12357 Berlin
Atila's Kebabhaus,52.44521,13.45448,Parchimer Allee 33 Britz 12359 Berlin
Ristorante Venezia,52.44176,13.4568,Rudower Straße 12 Buckow 12351 Berlin
Wurst und Würstchen,52.429147,13.453435,Johannisthaler Chaussee 317 Gropiusstadt 12351 Berlin
ICE Café Mimoza Pizzeria,52.42389,13.46331,Lipschitzallee 69 Gropiusstadt 12353 Berlin
Trattoria Pane E Vino,52.4258,13.48725,Stubenrauchstraße 2 Rudow 12357 Berlin
Atrium Restaurant,52.42553,13.46246,BatYamPlatz 1 Gropiusstadt 12353 Berlin
Pizzeria Il Bene,52.4259,13.47839,FritzErlerAllee 181 Rudow 12353 Berlin
Steakhaus Torero,52.42639,13.48279,Neuköllner Straße 251 Rudow 12357 Berlin
Nokta,52.42588,13.48364,Neuköllner Straße 259 Rudow 12357 Berlin
Dean&David B Schönhauser,52.42302,13.48314,Zwickauer Damm 12 Gropiusstadt 12353 Berlin
Restaurant & Snack al Balad,52.42389,13.46331,Lipschitzallee 69 Gropiusstadt 12353 Berlin
Just 4 You,52.424133,13.485872,Neuköllner Straße 279 Rudow 12357 Berlin
Lula Balkan Spezialitäten,52.42638,13.47726,FritzErlerAllee 173 Rudow 12353 Berlin
Pizzeria Santa Lucia,52.42381,13.4855,Neuköllner Straße 280 Rudow 12357 Berlin
Nokta Grillhaus,52.42588,13.48364,Neuköllner Straße 259 Rudow 12357 Berlin
Thai Nippon Sushi Bar,52.43676,13.44743,Gutschmidtstraße 19 Britz 12359 Berlin
Sumak,52.44558,13.44549,Parchimer Allee 101 Britz 12359 Berlin
Samara,52.424133,13.485872,Neuköllner Straße 279 Rudow 12357 Berlin
Clubsmühlen Gastronomie,52.42761,13.48116,Neuköllner Straße 233 Rudow 12357 Berlin
Dartcafe Double Out,52.42854,13.48122,Mohnweg 3 Rudow 12357 Berlin
Diyar Simit Evi,52.423339,13.473327,Wutzkyallee Gropiusstadt 12353 Berlin
Lipschitz Grill Berlin,52.42826,13.46835,Lipschitzallee 34 Gropiusstadt 12351 Berlin
Restaurant Maracas,52.43003,13.47804,Neuköllner Straße 201 Rudow 12357 Berlin
Ali's Gemüse Kebap,52.442,13.45652,Rudower Straße 4 Buckow 12351 Berlin
Verde's Pizza & Gelato,52.42294,13.47549,JoachimGottschalkWeg 21 Gropiusstadt 12353 Berlin
Vegansia,52.43676,13.44743,Gutschmidtstraße 19 Britz 12359 Berlin
Curry-Paule,52.43042,13.49398,Stubenrauchstraße 103 Rudow 12357 Berlin
Südtiroler Stübl,52.45126,13.48793,Königsheideweg 114 Baumschulenweg 12437 Berlin
Kropp,52.429291,13.456701,Johannisthaler Chaussee Gropiusstadt 12351 Berlin
Magic Donuts,52.429812,13.456353,Johannisthaler Chaussee Gropiusstadt 12351 Berlin
Laden und Bistro in den Gropius-Passagen,52.42938,13.45658,Johannisthaler Chaussee 309 Gropiusstadt 12351 Berlin
Kaiserpagode,52.38518,13.19603,Potsdamer Allee 119 14532 Stahnsdorf
Taj Mahal,52.38588,13.19847,Potsdamer Allee 109 14532 Stahnsdorf
Restaurant Schleusengarten,52.39281,13.21045,Schleusenweg 4 14532 Stahnsdorf
Castagno,52.39369,13.21338,Wannseestraße 4 14532 Stahnsdorf
Chopsticks,52.38283,13.24329,Ruhlsdorfer Straße 95 14532 Stahnsdorf
Eiscafe Castagno,52.39212,13.22144,WilhelmKülzStraße 44 14532 Stahnsdorf
Osteria Ballerino,52.39107,13.22564,Ruhlsdorfer Straße 14 14532 Stahnsdorf
Derbyklause II,52.37183,13.24318,Schenkendorfer Weg 13 14532 Stahnsdorf
Appartementvermietung Ebel,52.6023,13.61722,Berliner Platz 3 Blumberg 16356 Ahrensfelde
Domino's Pizza,52.59116,13.37669,Kastanienallee 58A Rosenthal 13158 Berlin
Schaukelpferd,52.58654,13.37401,Schönholzer Weg 13 Rosenthal 13158 Berlin
Curry Horschte,52.58713,13.36784,Hauptstraße 32 Wilhelmsruh 13158 Berlin
Asia Bistro Hoa,52.58601,13.36697,Hauptstraße 18 Wilhelmsruh 13158 Berlin
Dittmann's,52.59666,13.37455,Hauptstraße 106 Rosenthal 13158 Berlin
Ristorante Siena,52.592869,13.382705,FriedrichEngelsStraße 149 Rosenthal 13158 Berlin
Astakos,52.59141,13.38485,Kastanienallee Rosenthal 13158 Berlin
Vegan Bio Snackbars by Attila Hildmann,52.58834,13.36201,Schillerstraße 71 Wilhelmsruh 13158 Berlin
Mexico,52.5852,13.36439,Hertzstraße 22 Wilhelmsruh 13158 Berlin
Berlin 26,52.59409,13.3613,Dannenwalder Weg 186 Märkisches Viertel 13439 Berlin
Majesty-Grill,52.58523,13.36684,Hauptstraße 9 Wilhelmsruh 13158 Berlin
Zum Milchmann,52.58513,13.36596,Hertzstraße 14 Wilhelmsruh 13158 Berlin
Delicious,52.58475,13.36583,Hertzstraße 15 Wilhelmsruh 13158 Berlin
Orient Kitchen,52.59681,13.3535,Wilhelmsruher Damm 142D Märkisches Viertel 13439 Berlin
The My Moon Restaurant & Lounge,52.57445,13.35862,AltReinickendorf 3 Reinickendorf 13407 Berlin
Tini's Inn,52.60693,13.36404,Quickborner Straße 102 Märkisches Viertel 13439 Berlin
Gaststätte Trabant,52.60311,13.36257,Senftenberger Ring 34B Märkisches Viertel 13435 Berlin
Fly-In,52.5744,13.35972,Klemkestraße 1 Reinickendorf 13409 Berlin
Stampedo,52.58404,13.39108,FriedrichEngelsStraße 44 Niederschönhausen 13156 Berlin
Restaurant Grüne Lampe,52.58649,13.39475,Uhlandstraße 51 Niederschönhausen 13156 Berlin
Agnes Neuhaus Cafe,52.59141,13.39942,Schönhauser Straße 41 Rosenthal 13158 Berlin
Restaurant zum Torhaus,52.58844,13.38724,Nordendstraße 46 Niederschönhausen 13156 Berlin
Gartenkuche,52.57901,13.37449,Waldsteg Niederschönhausen 13158 Berlin
Spok,52.58898,13.39075,Taufsteinweg 56 Niederschönhausen 13156 Berlin
Gaststätte Einigkeit,52.60095,13.3923,Kräuterplatz 3 Rosenthal 13158 Berlin
Break,52.58898,13.39075,Nordendstraße 56 Niederschönhausen 13156 Berlin
Dalmacija,52.59395,13.34739,Schorfheidestraße 23 Märkisches Viertel 13439 Berlin
Krystal Restaurant,52.5937,13.35699,Teschendorfer Weg 6 Märkisches Viertel 13439 Berlin
Western Saloon,52.59681,13.3535,Wilhelmsruher Damm 142 Märkisches Viertel 13439 Berlin
Ristorante Montana,52.59817,13.35524,Senftenberger Ring 3 Märkisches Viertel 13439 Berlin
China Box,52.597373,13.354745,Wilhelmsruher Damm Märkisches Viertel 13439 Berlin
Capitano,52.59735,13.34576,Eichhorster Weg 9 Märkisches Viertel 13435 Berlin
Cafè Blixen,52.59689,13.35385,Wilhelmsruher Damm 140 Märkisches Viertel 13439 Berlin
Glaskasten,52.597336,13.35346,Märkisches Viertel 13435 Berlin
Taverna Orakel Berlin,52.59082,13.34785,Dannenwalder Weg 70 Märkisches Viertel 13439 Berlin
Mv Pasta&Pizza,52.59637,13.34649,Wilhelmsruher Damm 168 Märkisches Viertel 13435 Berlin
Restaurant Kar Yee Cheung,52.597762,13.355682,Senftenberger Ring 3 Märkisches Viertel 13439 Berlin
Siggi's Imbiss,52.59805,13.35456,Senftenberger Ring 11 Märkisches Viertel 13439 Berlin
Castell,52.5937,13.35699,Teschendorfer Weg 6 Märkisches Viertel 13439 Berlin
Fatih Serve,52.59906,13.35561,Senftenberger Ring 17 Märkisches Viertel 13439 Berlin
Boboq Märkisches Centrum,52.59689,13.35385,Wilhelmsruher Damm 140 Märkisches Viertel 13439 Berlin
Haus Schönwald,52.59576,13.39093,Schönhauser Straße 24B Rosenthal 13158 Berlin
Trattoria Dolce Vita,52.59224,13.34932,Dannenwalder Weg 87 Märkisches Viertel 13439 Berlin
KFC,52.59724,13.35454,Wilhelmsruher Damm 138 Märkisches Viertel 13439 Berlin
Steakhaus El Dorando,52.57401,13.35855,AltReinickendorf 62 Reinickendorf 13407 Berlin
Altenberg,52.58873,13.40145,Dietzgenstraße 83 Niederschönhausen 13156 Berlin
Pizza Express,52.59774,13.35459,Senftenberger Ring 7 Märkisches Viertel 13439 Berlin
Sushi House,52.58258,13.39593,Treskowstraße 13 Niederschönhausen 13156 Berlin
Marron,52.5916,13.39298,Kastanienallee 20 Rosenthal 13158 Berlin
Altenburger,52.58873,13.40145,Dietzgenstraße 83 Niederschönhausen 13156 Berlin
Christel Wirbitzki Restaurant,52.58844,13.38724,Nordendstraße 46 Niederschönhausen 13156 Berlin
Ihr Koch on Tour,52.45481,13.59031,Seelenbinderstraße 112 Köpenick 12555 Berlin
Pizzawerkköpenick,52.45481,13.59031,Seelenbinderstraße 112 Köpenick 12555 Berlin
Pizzawerk,52.45481,13.59031,Seelenbinderstraße 112 Köpenick 12555 Berlin
Veracruz,52.45268,13.59594,Fürstenwalder Damm 260 Friedrichshagen 12587 Berlin
Pier 44,52.44606,13.58552,Wendenschloßstraße 60D Köpenick 12559 Berlin
Taj Mahal Haus Köpenick,52.44759,13.59188,Wendenschloßstraße 12 Köpenick 12559 Berlin
Tasty Waffle,52.46229,13.58212,Mahlsdorfer Straße 97E Köpenick 12555 Berlin
Café Hdjk,52.45521,13.58288,Seelenbinderstraße 54 Köpenick 12555 Berlin
TSV Eiche Köpenick,52.44857,13.59291,Wendenschloßstraße 6 Köpenick 12559 Berlin
Aao Ji,52.44759,13.59188,Wendenschloßstraße 12 Köpenick 12559 Berlin
El Loco,52.44732,13.57702,Freiheit 5 Köpenick 12555 Berlin
Gaststatte Vereinsheim Erpetal,52.460007,13.611314,Duftgeranienweg 40 Friedrichshagen 12587 Berlin
Domino's Pizza,52.45415,13.57784,Puchanstraße 22 Köpenick 12555 Berlin
Hippokrates,52.45991,13.58036,Mahlsdorfer Straße 106 Köpenick 12555 Berlin
Burgerburo,52.45736,13.57798,Bahnhofstraße Köpenick 12555 Berlin
Mykonos,52.44434,13.58531,Wendenschloßstraße 43 Köpenick 12559 Berlin
Viet Duc,52.45302,13.57486,Bahnhofstraße 1 Köpenick 12555 Berlin
Tandoori Mahal,52.4441,13.57957,Amtsstraße 5 Köpenick 12555 Berlin
Nordsee,52.45846,13.57895,Bahnhofstraße 33 Köpenick 12555 Berlin
Amtsfeld,52.4413,13.58743,PabloNerudaStraße 3 Köpenick 12559 Berlin
Waschhaus Alt-Köpenick,52.4459,13.5795,Katzengraben 19 Köpenick 12555 Berlin
Mia Mambo Döner,52.44475,13.58639,Wendenschloßstraße 37 Köpenick 12559 Berlin
Isaja,52.45686,13.58085,Borgmannstraße 5 Köpenick 12555 Berlin
Hauptmann von Koepenick,52.45919,13.58025,Mahlsdorfer Straße 1 Köpenick 12555 Berlin
Bistro 2000-Cafe,52.44364,13.58396,Wendenschloßstraße 49 Köpenick 12559 Berlin
Restaurant Sandmann,52.45676,13.58098,Parrisiusstraße 19 Köpenick 12555 Berlin
Kinzer Krug,52.45473,13.57666,Bahnhofstraße 7 Köpenick 12555 Berlin
Rodos,52.458248,13.578168,Bahnhofstraße Köpenick 12555 Berlin
Lehmofen,52.44748,13.57816,Freiheit 12 Köpenick 12555 Berlin
Pizza Pasta,52.45846,13.57895,Bahnhofstraße 33 Köpenick 12555 Berlin
Tinh Co,52.45473,13.57666,Bahnhofstraße 7 Köpenick 12555 Berlin
Segafredo Espresso-Bar,52.45846,13.57895,Bahnhofstraße 33 Köpenick 12555 Berlin
Kombüse,52.44732,13.57702,Freiheit 5 Köpenick 12555 Berlin
Dehning Heideschlachter,52.458119,13.578409,Bahnhofstraße Köpenick 12555 Berlin
Peps Kaffee,52.44692,13.57617,Kirchstraße 1 Köpenick 12555 Berlin
El Tinto,52.44692,13.57617,Kirchstraße 1 Köpenick 12555 Berlin
Sapori di Sicilia,52.44756,13.57878,Freiheit 11 Köpenick 12555 Berlin
China Bistro Thang Long,52.457882,13.576605,Köpenick 12555 Berlin
Presto,52.45579,13.5784,Seelenbinderstraße 23 Köpenick 12555 Berlin
Milchkaffee,52.44614,13.57639,Kirchstraße 5 Köpenick 12555 Berlin
Eat Me!,52.458044,13.578523,Bahnhofstraße Köpenick 12555 Berlin
Bistro Bonjour,52.458552,13.576368,Köpenick 12555 Berlin
Faltin's Biergarten,52.462,13.57761,Kaulsdorfer Straße 293 Köpenick 12555 Berlin
Shene Huo,52.44646,13.57803,Lüdersstraße 16 Köpenick 12555 Berlin
Center Grill,52.45846,13.57895,Bahnhofstraße 33 Köpenick 12555 Berlin
Restaurantschiff 'Ars Vivendi',52.44757,13.57687,Freiheit 15 Köpenick 12555 Berlin
Die Feinschmecker,52.4569,13.5782,Bahnhofstraße 18 Köpenick 12555 Berlin
Aao Ji,52.44781,13.57559,AltKöpenick 1 Köpenick 12555 Berlin
Döner Box Köpenick,52.4573,13.57851,Bahnhofstraße 19 Köpenick 12555 Berlin
Asia Snack,52.45846,13.57895,Bahnhofstraße 33 Köpenick 12555 Berlin
Mangococktailbar,52.44459,13.58596,Wendenschloßstraße 41 Köpenick 12559 Berlin
Pizza Piccolo,52.44735,13.57632,Freiheit 2 Köpenick 12555 Berlin
Deftig,52.45574,13.58075,Mandrellaplatz 1 Köpenick 12555 Berlin
Mr. Kebap,52.45811,13.57989,Elcknerplatz 6 Köpenick 12555 Berlin
Asia-Thai Bistro,52.44129,13.58795,PabloNerudaStraße 4 Köpenick 12559 Berlin
Sonnenkind,52.44588,13.57787,Jägerstraße 4 Köpenick 12555 Berlin
Yammas,52.45717,13.57787,Bahnhofstraße 39 Köpenick 12555 Berlin
Ventelino Focacceria,52.45425,13.57621,Bahnhofstraße 5 Köpenick 12555 Berlin
Kebaphaus 49,52.45538,13.57661,Bahnhofstraße 49 Köpenick 12555 Berlin
Pizzeria Castello,52.45579,13.5784,Seelenbinderstraße 23 Köpenick 12555 Berlin
Mexico City,52.45846,13.57895,Bahnhofstraße 33 Köpenick 12555 Berlin
Brinki´S Brutzel Bude,52.44757,13.57687,Freiheit 15 Köpenick 12555 Berlin
Pizzaplanet,52.44459,13.58596,Wendenschloßstraße 41 Köpenick 12559 Berlin
Mone's Kleiner Treffpunkt,52.54482,13.24615,Gartenfelder Straße 58 Haselhorst 13599 Berlin
Asia Snack,52.54301,13.24074,Gartenfelder Straße 87 Haselhorst 13599 Berlin
Mila Bistro Asia Cuisine,52.54243,13.2386,Gartenfelder Straße 109 Haselhorst 13599 Berlin
Ital Snack,52.54259,13.23921,Gartenfelder Straße 105 Haselhorst 13599 Berlin
Costa Rica,52.54169,13.23889,Simonring 9 Haselhorst 13599 Berlin
Restaurant Vitello,52.54169,13.23889,Simonring 9 Haselhorst 13599 Berlin
Kantine im Finanzamt Spandau,52.53839,13.23737,Nonnendammallee 15 Haselhorst 13599 Berlin
Mali Raj,52.54187,13.23665,Gartenfelder Straße 119 Haselhorst 13599 Berlin
Milano Restaurant Pizza,52.54319,13.23906,Haselhorster Damm 3 Haselhorst 13599 Berlin
BURGER KING,52.53994,13.2486,Paulsternstraße 16 Siemensstadt 13629 Berlin
Lemongras,52.54243,13.2386,Gartenfelder Straße 109 Haselhorst 13599 Berlin
Die Ecke,52.54321,13.24039,Gartenfelder Straße 92 Haselhorst 13599 Berlin
Metro Deutschland,52.53978,13.24533,Nonnendammallee 135 Haselhorst 13599 Berlin
Maximilian,52.53769,13.22884,Am Juliusturm 13 Haselhorst 13599 Berlin
Schlemmerparadies,52.53769,13.22884,Am Juliusturm 13 Haselhorst 13599 Berlin
Rödi Pizza-Pasta-Döner,52.5399,13.23181,Daumstraße 3 Haselhorst 13599 Berlin
Pier36eins,52.41727,13.58164,Wassersportallee Grünau 12527 Berlin
Don Giovanni,52.42796,13.5817,Wendenschloßstraße 312A Köpenick 12557 Berlin
Cafe Liebig,52.41528,13.58204,Regattastraße 158 Grünau 12527 Berlin
Hafenbaude,52.41859,13.58719,Müggelbergallee 1A Köpenick 12557 Berlin
Köpenicker Currywurst Ug (Haftungsbeschränkt),52.42869,13.57885,Wendenschloßstraße 298 Köpenick 12557 Berlin
Wendenschloss,52.4149,13.59053,Wendenschloßstraße 459 Köpenick 12557 Berlin
Seidenmatt,52.41892,13.57945,Regattastraße 105 Grünau 12527 Berlin
Pizzeria Dorado,52.42478,13.57476,Regattastraße 36 Grünau 12527 Berlin
Pizzeria Cucina,52.42483,13.57513,Regattastraße 35 Grünau 12527 Berlin
Restaurant Klabautermann,52.4147,13.58877,Niebergallstraße 34 Köpenick 12557 Berlin
Restaurant Ambassador-Berlin-Grünau,52.41823,13.58037,Rießerseestraße 2 Grünau 12527 Berlin
Antalya Grill,52.41766,13.58009,Regattastraße 124 Grünau 12527 Berlin
Pahl,52.41823,13.58037,Rießerseestraße 2 Grünau 12527 Berlin
Teterra und Trompke Gb,52.56666,13.19323,Schönwalder Allee 22 Hakenfelde 13587 Berlin
Restaurant Kastaniengarten,52.56769,13.19244,Schönwalder Allee 26 Hakenfelde 13587 Berlin
Das Berliner Frühstück,52.45551,13.5033,Südostallee 169 Johannisthal 12487 Berlin
Narli,52.45642,13.50922,Schnellerstraße 21 Niederschöneweide 12439 Berlin
Taj Mahal India,52.45655,13.51051,Schnellerstraße 128 Niederschöneweide 12439 Berlin
Tandoor House,52.45649,13.51118,Spreestraße 27 Niederschöneweide 12439 Berlin
KFC,52.46082,13.50299,Schnellerstraße 18A Niederschöneweide 12439 Berlin
Il Nuovo Berlin,52.46248,13.48302,Baumschulenstraße 69 Baumschulenweg 12437 Berlin
Asiagourmet,52.45642,13.50922,Schnellerstraße 21 Niederschöneweide 12439 Berlin
Balla Balla,52.45639,13.5115,Spreestraße 1 Niederschöneweide 12439 Berlin
Spezialcafé,52.45772,13.51146,Brückenstraße 7 Niederschöneweide 12439 Berlin
Funa Sushi,52.4575,13.51079,Brückenstraße 27 Niederschöneweide 12439 Berlin
Original Ketwurst,52.45642,13.50922,Schnellerstraße 21 Niederschöneweide 12439 Berlin
Eiskönigin,52.45642,13.50922,Schnellerstraße 21 Niederschöneweide 12439 Berlin
Falafel Nr. 1,52.45642,13.50922,Schnellerstraße 21 Niederschöneweide 12439 Berlin
Staatsburger,52.46329,13.51368,Edisonstraße 59 Oberschöneweide 12459 Berlin
Feuerwache-Malanders,52.46474,13.51214,Deulstraße 1 Oberschöneweide 12459 Berlin
Spreeterrasse - Ehemals Spreeerbse,52.46227,13.51199,Wilhelminenhofstraße 89 Oberschöneweide 12459 Berlin
Bill Yard Fabrik,52.46338,13.50897,Wilhelminenhofstraße 93 Oberschöneweide 12459 Berlin
Takeaway the Loop,52.46148,13.51746,Wilhelminenhofstraße 83 Oberschöneweide 12459 Berlin
The Double Inn - Irish & Scottish Pub,52.46227,13.51199,Wilhelminenhofstraße 89 Oberschöneweide 12459 Berlin
Sonnendeck,52.46217,13.51373,Edisonstraße 63 Oberschöneweide 12459 Berlin
Haniz-Duy,52.46274,13.51379,Edisonstraße 62 Oberschöneweide 12459 Berlin
Pizza Hof,52.46241,13.51474,Wilhelminenhofstraße 17 Oberschöneweide 12459 Berlin
Iceblockers,52.46787,13.50354,Tabbertstraße 14 Oberschöneweide 12459 Berlin
El Buen Gusto,52.46425,13.48854,Kiefholzstraße 191 Baumschulenweg 12437 Berlin
Asia Haus & Sushi Bar,52.46112,13.48137,Baumschulenstraße 65 Baumschulenweg 12437 Berlin
Ristorante Eiscafe Alberto,52.46624,13.4897,Behringstraße 9 Baumschulenweg 12437 Berlin
Cafe Behring,52.46661,13.48975,Behringstraße 6 Baumschulenweg 12437 Berlin
Café 74,52.46368,13.48447,Baumschulenstraße 74 Baumschulenweg 12437 Berlin
Asia Wok,52.46463,13.48623,Baumschulenstraße 27 Baumschulenweg 12437 Berlin
Bistro Narli,52.46395,13.49838,Schnellerstraße 1 Niederschöneweide 12439 Berlin
Leckerburger,52.461527,13.517207,Wilhelminenhofstraße Oberschöneweide 12459 Berlin
Hoa Lan,52.4653,13.48704,Baumschulenstraße 21 Baumschulenweg 12437 Berlin
Petersen Restaurant und Cafe,52.46425,13.48854,Kiefholzstraße 191 Baumschulenweg 12437 Berlin
Ristorante Romantica,52.46463,13.51304,Siemensstraße 18 Oberschöneweide 12459 Berlin
Pizzeria Isobella,52.46544,13.48662,Baumschulenstraße 88 Baumschulenweg 12437 Berlin
Curry-Weide,52.4625,13.51451,Wilhelminenhofstraße 16A Oberschöneweide 12459 Berlin
Tokyo For You,52.46274,13.51379,Edisonstraße 62 Oberschöneweide 12459 Berlin
Bep Viet,52.46274,13.51379,Edisonstraße 62 Oberschöneweide 12459 Berlin
Döner Billiard,52.46265,13.51368,Wilhelminenhofstraße 15 Oberschöneweide 12459 Berlin
Pizzeria Dilara,52.46567,13.48749,Baumschulenstraße 19 Baumschulenweg 12437 Berlin
Stevens Bierpub,52.46217,13.51373,Edisonstraße 63 Oberschöneweide 12459 Berlin
Glücksstern,52.46241,13.51474,Wilhelminenhofstraße 17 Oberschöneweide 12459 Berlin
Anima E Curore,52.4588,13.51248,Brückenstraße 14 Niederschöneweide 12439 Berlin
Cafe Diadem,52.60926,13.20013,Dorfstraße 28 Nieder Neuendorf 16761 Hennigsdorf
Athos,52.60774,13.19831,Dorfstraße 48 Nieder Neuendorf 16761 Hennigsdorf
Zum Blockhaus,52.60439,13.19756,Am Oberjägerweg 5 Nieder Neuendorf 16761 Hennigsdorf
Die Buhne,52.60948,13.20041,Dorfstraße 26 Nieder Neuendorf 16761 Hennigsdorf
Restaurant Haus Dannenberg,52.6081,13.21187,AltHeiligensee Heiligensee 13503 Berlin
Trattoria Giardini del Villaggio,52.60736,13.21085,AltHeiligensee Heiligensee 13503 Berlin
Dorfaue,52.60736,13.21085,AltHeiligensee Heiligensee 13503 Berlin
Roma Ristorante Pizzeria,52.61306,13.21763,Hennigsdorfer Straße 17 Heiligensee 13503 Berlin
Ristorante Toscanini,52.61498,13.20157,Am Yachthafen 7 Nieder Neuendorf 16761 Hennigsdorf
Cafe Rodelhutte,52.45556,13.25051,OnkelTomStraße 167 Dahlem 14169 Berlin
Capriole,52.4543,13.2493,OnkelTomStraße 172 Zehlendorf 14169 Berlin
Messã³Jios,52.45012,13.25507,Riemeisterstraße 129 Zehlendorf 14169 Berlin
Gourmet Sud,52.44579,13.24285,Selmaplatz 1 Zehlendorf 14163 Berlin
Wu's China Restaurant,52.4467,13.24322,Teschener Weg 5 Zehlendorf 14163 Berlin
Golden Goal,52.44528,13.25276,OnkelTomStraße 54A Zehlendorf 14169 Berlin
Restaurant Spalato,52.4409,13.24287,Fischerhüttenstraße Zehlendorf 14163 Berlin
Waldhaus,52.44408,13.25389,OnkelTomStraße 50 Zehlendorf 14169 Berlin
Lindner,52.44246,13.24128,Fischerhüttenstraße 83 Zehlendorf 14163 Berlin
Imbiss am Oskar-Helene-Heim,52.44985,13.26965,Clayallee 225 Dahlem 14195 Berlin
Ha-Chi,52.45179,13.26989,Clayallee 173 Dahlem 14169 Berlin
Goodtime,52.51235,13.39734,Hausvogteiplatz 11 Mitte 10117 Berlin
Augustiner am Gendarmenmarkt,52.51373,13.39108,Charlottenstraße 56 Mitte 10117 Berlin
Rotisserie Weingrün,52.512729,13.403026,Gertraudenstraße 10 Mitte 10178 Berlin
Fischers Fritz,52.51515,13.39085,Charlottenstraße 49 Mitte 10117 Berlin
La Banca Bar,52.51583,13.3941,Behrenstraße 37 Mitte 10117 Berlin
Braufactum am Hausvogteiplatz,52.51336,13.39611,Hausvogteiplatz 3 Mitte 10117 Berlin
Borchardt,52.51497,13.39041,Französische Straße 47 Mitte 10117 Berlin
Jedermann's,52.51739,13.39015,Unter den Linden 12 Mitte 10117 Berlin
SUBWAY,52.51586,13.39021,Behrenstraße 47 Mitte 10117 Berlin
Austernbank,52.51594,13.39161,Behrenstraße 42 Mitte 10117 Berlin
Restaurant Beletage,52.51199,13.391876,Mohrenstraße 30 Mitte 10117 Berlin
The Coffee Shop,52.513,13.39735,Hausvogteiplatz 13 Mitte 10117 Berlin
Maredo Steakhouse - Berlin Gendarmenmarkt,52.51286,13.3911,Friedrichstraße 68 Mitte 10117 Berlin
Roter Jaeger,52.51404,13.39586,Jägerstraße 28 Mitte 10117 Berlin
Erdinger am Gendarmenmarkt,52.51426,13.39358,Jägerstraße 56 Mitte 10117 Berlin
Chipps,52.51439,13.39755,Jägerstraße 35 Mitte 10117 Berlin
Cha Cha,52.51172,13.38986,Friedrichstraße 63 Mitte 10117 Berlin
Otito,52.51017,13.39052,Leipziger Straße 30 Mitte 10117 Berlin
Brasserie am Gendarmenmarkt,52.51341,13.39408,Taubenstraße 30 Mitte 10117 Berlin
Thu My Marie Restaurant,52.51316,13.39443,Taubenstraße 20 Mitte 10117 Berlin
The Coffee Shop,52.51537,13.39852,Werderscher Markt 1 Mitte 10117 Berlin
Seaside,52.51198,13.38998,Mohrenstraße 17 Mitte 10117 Berlin
Newton Bar,52.51341,13.39113,Charlottenstraße 56 Mitte 10117 Berlin
Lavida Wine Club,52.51316,13.39443,Taubenstraße 20 Mitte 10117 Berlin
Sagrantino,52.51586,13.39021,Behrenstraße 47 Mitte 10117 Berlin
The Digital Eatery,52.51681,13.39048,Unter den Linden 17 Mitte 10117 Berlin
Pasta Monopoly,52.51144,13.39096,Kronenstraße 55 Mitte 10117 Berlin
Dom Curry,52.51217,13.39282,Mohrenstraße 30 Mitte 10117 Berlin
Ma'Loa Hawaiian Poké Bowl,52.51348,13.39699,Oberwallstraße 9 Mitte 10117 Berlin
Mabuhay Mini,52.51144,13.39096,Kronenstraße 55 Mitte 10117 Berlin
Nanoosh,52.5123,13.39027,Mohrenstraße 50 Mitte 10117 Berlin
Auf die Hand - Feinstes Fastfood Friedrichstrasse,52.51198,13.38998,Mohrenstraße Mitte 10117 Berlin
Chupenga Burritos & Salads,52.51251,13.39448,Mohrenstraße 42 Mitte 10117 Berlin
Leysieffer,52.51241,13.39046,Mohrenstraße 68 Mitte 10117 Berlin
Lutter und Wegner,52.51341,13.39113,Charlottenstraße 56 Mitte 10117 Berlin
Domcafe im Berliner Dom,52.51899,13.40068,Am Lustgarten Mitte 10178 Berlin
Freundschaft,52.51826,13.39031,Mittelstraße 1 Mitte 10117 Berlin
Cafeteria Hfm Neuer Marstall,52.51659,13.40345,Schloßplatz 7 Mitte 10178 Berlin
The Rooftop Terrace,52.51583,13.3941,Behrenstraße 37 Mitte 10117 Berlin
Julian & Elisa,52.51484,13.39335,Markgrafenstraße 41 Mitte 10117 Berlin
Mensa Süd,52.51762,13.39376,Unter den Linden 6 Mitte 10117 Berlin
Gerdarmerie,52.51594,13.39161,Behrenstraße 42 Mitte 10117 Berlin
Naveena Path,52.51826,13.39031,Mittelstraße 1 Mitte 10117 Berlin
Bonjour Vietnam,52.51636,13.38993,Rosmarinstraße Mitte 10117 Berlin
Die Maultasche,52.51614,13.39101,Charlottenstraße 35 Mitte 10117 Berlin
Restauration Stadtbahnbögen,52.51497,13.39041,Französische Straße 47 Mitte 10117 Berlin
Le Populaire,52.51697,13.39615,Unter den Linden 5 Mitte 10117 Berlin
Chiaro,52.515828,13.3941,Behrenstraße 37 Mitte Berlin
World of TUI,52.5154,13.39276,Markgrafenstraße 46 Mitte 10117 Berlin
Kofler & Kompanie Newco,52.51772,13.39704,Unter den Linden 2 Mitte 10117 Berlin
Vietnam Restaurant,52.51739,13.39015,Unter den Linden 12 Mitte 10117 Berlin
Little Green Rabbit - unter den Linden,52.51677,13.38987,Unter den Linden 21 Mitte 10117 Berlin
Foreign Affairs,52.51524,13.3977,Werderscher Markt 11 Mitte 10117 Berlin
Cafe-Restaurant Berlin/Mitte,52.51134,13.3982,Leipziger Straße 56 Mitte 10117 Berlin
Bless Restaurant,52.51245,13.39679,Hausvogteiplatz 10 Mitte 10117 Berlin
ATRIUM CAFE,52.51473,13.39075,Französische Straße 5052 Mitte 10117 Berlin
Büro,52.51017,13.39016,Friedrichstraße Mitte 10117 Berlin
Bistro am Gendarmenmarkt,52.51484,13.39335,Markgrafenstraße 41 Mitte 10117 Berlin
Ur-Saalfelder,52.51115,13.39518,Leipziger Straße 61 Mitte 10117 Berlin
Saigon Café & Bar,52.51071,13.39994,Leipziger Straße 48 Mitte 10117 Berlin
Random Sushi Restaurant in Berlin,52.51118,13.39129,Kronenstraße Mitte 10117 Berlin
China City,52.51057,13.39734,Leipziger Straße 46 Mitte 10117 Berlin
Berlin Coffee,52.51202,13.39039,Mohrenstraße 19 Mitte 10117 Berlin
Cafe Konzerthaus am Gendarmenmarkt,52.51388,13.391851,Gendarmenmarkt 2 Mitte 10117 Berlin
Cadadia,52.51152,13.39144,Charlottenstraße 63 Mitte 10117 Berlin
Löwen-Team,52.51426,13.39358,Jägerstraße 56 Mitte 10117 Berlin
Sons of Mana X Royals & Rice,52.51238,13.39002,Friedrichstraße 67 Mitte 10117 Berlin
Quchnia,52.51281,13.3936,Markgrafenstraße 35 Mitte 10117 Berlin
Little Green Rabbit - Gendarmenmarkt,52.51398,13.3956,Jägerstraße 27 Mitte 10117 Berlin
Sapa Sushi,52.51152,13.39144,Charlottenstraße 63 Mitte 10117 Berlin
Spätzle Club,52.51055,13.40242,Seydelstraße 2 Mitte 10117 Berlin
Vietnamese Garkuche,52.510374,13.390133,Leipziger Straße Mitte 10117 Berlin
Bistro Vital,52.51142,13.3972,Leipziger Straße 58 Mitte 10117 Berlin
Spiekermann Erik,52.51258,13.39906,Niederwallstraße 32 Mitte 10117 Berlin
Refugium,52.5143,13.39221,Gendarmenmarkt 5 Mitte 10117 Berlin
Lafayette Bistro,52.51405,13.38995,Jägerstraße 61 Mitte 10117 Berlin
L&D GNNH & Conkg KG I'm Restaurant des Icaa in Berlin,52.51313,13.39992,Kurstraße 36 Mitte 10117 Berlin
Fontana di Trevi,52.51134,13.3982,Leipziger Straße 56 Mitte 10117 Berlin
Frittenwerk Berlin Friedrichstrasse,52.51282,13.39039,Friedrichstraße 69 Mitte 10117 Berlin
Berlin Capital Club,52.51217,13.39282,Mohrenstraße 30 Mitte 10117 Berlin
Französischer Hof,52.51426,13.39358,Markgrafenstraße 56 Mitte 10117 Berlin
Chocolaterie Manon,52.51405,13.38995,Jägerstraße 61 Mitte 10117 Berlin
Blbg,52.51166,13.3914,Charlottenstraße 62 Mitte 10117 Berlin
Mosaik-Kantine Konzerthaus,52.51322,13.39107,Taubenstraße 31 Mitte 10117 Berlin
Cafe am Petriplatz,52.51294,13.40318,Gertraudenstraße Mitte 10178 Berlin
Malatesta,52.51246,13.39117,Charlottenstraße 59 Mitte 10117 Berlin
Noumi,52.51439,13.39755,Jägerstraße 35 Mitte 10117 Berlin
Mare E Monti,52.51844,13.3903,Charlottenstraße 43 Mitte 10117 Berlin
Beefbar,52.51245,13.39679,Hausvogteiplatz 10 Mitte 10117 Berlin
Los Angeles Cold Press,52.51405,13.38995,Jägerstraße Mitte 10117 Berlin
Quadriga Forum,52.51517,13.39737,Werderscher Markt 13 Mitte 10117 Berlin
Einstein,52.51824,13.40087,Am Lustgarten Mitte 10178 Berlin
The Sushi Club,52.51251,13.39448,Mohrenstraße 42 Mitte 10117 Berlin
Lunchtime,52.5143,13.39725,Jägerstraße 34 Mitte 10117 Berlin
Mensa Hochschule für Musik Charlottenstraße,52.51373,13.39108,Charlottenstraße 55 Mitte 10117 Berlin
Speisen & Getränke,52.51134,13.3982,Leipziger Straße 56 Mitte 10117 Berlin
Neuhaus,52.51198,13.38998,Mohrenstraße Mitte 10117 Berlin
"Katz Orange, Bergstraße 22, Berlin",52.511316,13.400988,Leipziger Straße Mitte 10117 Berlin
Lemke,52.523252,13.404735,Dircksenstraße 143 Mitte 10178 Berlin
Brauhaus Georgbraeu,52.51656,13.40519,Spreeufer 4 Mitte 10178 Berlin
Restaurant Wiesenblick,52.54593,13.49407,Waldowstraße 1 AltHohenschönhausen 13053 Berlin
Arjun,52.54824,13.50084,KonradWolfStraße 145 AltHohenschönhausen 13055 Berlin
Call A Pizza,52.54408,13.49289,KonradWolfStraße 114 AltHohenschönhausen 13055 Berlin
Seco Kiez-Kneipe,52.5447,13.49437,Schöneicher Straße 1718 AltHohenschönhausen 13055 Berlin
K3 Lounge,52.5487,13.50097,KonradWolfStraße 3 AltHohenschönhausen 13055 Berlin
Konrad Grill,52.54431,13.49252,KonradWolfStraße 23 AltHohenschönhausen 13055 Berlin
Kaffee Strudel,52.54408,13.49289,KonradWolfStraße 114 AltHohenschönhausen 13055 Berlin
Asia Bistro Storchenhof,52.54829,13.50347,Hauptstraße 9 AltHohenschönhausen 13055 Berlin
Fantasia,52.54868,13.50276,Hauptstraße 8 AltHohenschönhausen 13055 Berlin
Garage,52.54593,13.49407,Waldowstraße 1 AltHohenschönhausen 13053 Berlin
Kittchen Imbiss,52.54232,13.49932,Freienwalder Straße 15 AltHohenschönhausen 13055 Berlin
Nelke Feinkost Restaurant,52.54765,13.50325,Leuenberger Straße AltHohenschönhausen 13055 Berlin
Take Off Bierbar,52.54223,13.48933,KonradWolfStraße 103 AltHohenschönhausen 13055 Berlin
Pizza Max,52.54296,13.49075,KonradWolfStraße 108 AltHohenschönhausen 13055 Berlin
Commerzbank AG Filiale,52.54254,13.48994,KonradWolfStraße 104 AltHohenschönhausen 13055 Berlin
Silverado Steakhaus,52.54308,13.49011,KonradWolfStraße 28 AltHohenschönhausen 13055 Berlin
La Pica de Deli Mel,52.54204,13.49922,Freienwalder Straße 14A AltHohenschönhausen 13055 Berlin
Le Marrakesh,52.54737,13.49995,Gärtnerstraße 2 AltHohenschönhausen 13055 Berlin
Trattoria Aversa,52.54385,13.49982,Bahnhofstraße 7 AltHohenschönhausen 13055 Berlin
Pietschmanns,52.54372,13.49219,KonradWolfStraße 113 AltHohenschönhausen 13055 Berlin
Konrad Imbis,52.54731,13.49931,KonradWolfStraße 140 AltHohenschönhausen 13055 Berlin
Döner Treff,52.54829,13.50347,Hauptstraße 9 AltHohenschönhausen 13055 Berlin
Eiscafe Heidi,52.54372,13.49219,KonradWolfStraße 113 AltHohenschönhausen 13055 Berlin
Orankesee Terassen,52.5471,13.48227,Orankestraße 41 AltHohenschönhausen 13053 Berlin
Zapfhahn 88,52.53997,13.48501,KonradWolfStraße 88 AltHohenschönhausen 13055 Berlin
Lausbub,52.53877,13.49244,Goeckestraße 29 AltHohenschönhausen 13055 Berlin
Coffee Station,52.53986,13.4848,KonradWolfStraße 87 AltHohenschönhausen 13055 Berlin
Die Burgerhelden,52.54177,13.48846,KonradWolfStraße 99 AltHohenschönhausen 13055 Berlin
Dasclubhaus,52.54456,13.48598,Roedernstraße 16 AltHohenschönhausen 13053 Berlin
Bar im Wasserturm,52.54767,13.4887,Waldowstraße 20 AltHohenschönhausen 13053 Berlin
Firma Veit Kabiersch,52.55177,13.48785,Suermondtstraße 3 AltHohenschönhausen 13053 Berlin
Eleganz Imbiss,52.54855,13.50572,Hauptstraße 11 AltHohenschönhausen 13055 Berlin
Sushi For You,52.54191,13.48873,KonradWolfStraße 100 AltHohenschönhausen 13055 Berlin
Aquarium-Cafe,52.55177,13.48785,Suermondtstraße 3 AltHohenschönhausen 13053 Berlin
Restaurant und Eiscafe Gessert,52.5558,13.5023,Malchower Weg 69 AltHohenschönhausen 13053 Berlin
Cocomo,52.550861,13.512895,Gehrenseestraße 6A AltHohenschönhausen 13053 Berlin
Steakhouse Asino,52.53765,13.47886,KonradWolfStraße 68 AltHohenschönhausen 13055 Berlin
Restaurant Aphrodite,52.53812,13.48019,KonradWolfStraße 72 AltHohenschönhausen 13055 Berlin
Gourmet Grill,52.55627,13.48704,Hansastraße 188 Weißensee 13088 Berlin
Restaurant Olympia,52.55379,13.50281,Malchower Weg 45 AltHohenschönhausen 13053 Berlin
Wellis Sportsbar & Restaurant,52.54115,13.48121,KonradWolfStraße 53 AltHohenschönhausen 13055 Berlin
My Keng,52.55887,13.49793,Drossener Straße 48 AltHohenschönhausen 13053 Berlin
Suppe und Stulle Berlin,52.53839,13.48095,KonradWolfStraße 74 AltHohenschönhausen 13055 Berlin
Taverna Elena,52.51497,13.30269,Gierkezeile 23 Charlottenburg 10585 Berlin
Hoffgarten,52.51672,13.29696,Schloßstraße 60 Charlottenburg 14059 Berlin
Chenab,52.51312,13.29158,Knobelsdorffstraße 35 Charlottenburg 14059 Berlin
Gasthaus Kater Alex,52.51178,13.30116,KaiserFriedrichStraße 29 Charlottenburg 10585 Berlin
Chateau9 - Berlin,52.51114,13.30365,Bismarckstraße 78 Charlottenburg 10627 Berlin
Gimme Gelato,52.51205,13.29411,Wundtstraße 15 Charlottenburg 14059 Berlin
Danis Pizza,52.51191,13.29424,Horstweg 7 Charlottenburg 14059 Berlin
Sole D'Oro Cucina Italiana,52.51495,13.30497,Wilmersdorfer Straße 153 Charlottenburg 10585 Berlin
XL Doener,52.51202,13.29684,Schloßstraße 27B Charlottenburg 14059 Berlin
2 Friends,52.51545,13.30491,Wilmersdorfer Straße 156 Charlottenburg 10585 Berlin
Pizzeria Piccobello,52.51201,13.29752,Schloßstraße 32 Charlottenburg 14059 Berlin
Cafe sem,52.51649,13.30038,KaiserFriedrichStraße 9 Charlottenburg 10585 Berlin
Don Camillo,52.5167,13.29578,Schloßstraße 7 Charlottenburg 14059 Berlin
Weiß-Blau,52.51307,13.29083,Knobelsdorffstraße 37 Charlottenburg 14059 Berlin
Hängemate,52.51596,13.30448,Wilmersdorfer Straße 15 Charlottenburg 10585 Berlin
Galija,52.51878,13.30143,OttoSuhrAllee 139 Charlottenburg 10585 Berlin
Puttoberlin,52.51672,13.29696,Schloßstraße 60 Charlottenburg 14059 Berlin
Milchbubies,52.5157,13.30435,Haubachstraße 16 Charlottenburg 10585 Berlin
Genki-Sushi,52.51457,13.30464,Wilmersdorfer Straße 22 Charlottenburg 10585 Berlin
Le Piaf,52.51672,13.29696,Schloßstraße 60 Charlottenburg 14059 Berlin
Glaube Liebe Hoffnung,52.51767,13.29386,Neufertstraße 16 Charlottenburg 14059 Berlin
Putto,52.51672,13.29696,Schloßstraße 60 Charlottenburg 14059 Berlin
Pizzeria Chero,52.51575,13.30451,Wilmersdorfer Straße 17 Charlottenburg 10585 Berlin
Eisfabrik Alan 2,52.51737,13.30339,Schustehrusstraße 18 Charlottenburg 10585 Berlin
Eis Fedora Cafe,52.51485,13.29441,Nehringstraße 23 Charlottenburg 14059 Berlin
Die Eselin von a.,52.51709,13.29691,Schloßstraße 61 Charlottenburg 14059 Berlin
Co Miu,52.51553,13.29152,Seelingstraße 36 Charlottenburg 14059 Berlin
Goldesel,52.51547,13.29509,Seelingstraße 7 Charlottenburg 14059 Berlin
Aba Kebap,52.51496,13.29063,Danckelmannstraße 13 Charlottenburg 14059 Berlin
12 Oz,52.51133,13.29781,Bismarckstraße 67 Charlottenburg 10627 Berlin
Amoag Sudaniesch Spezialitaeten,52.51458,13.30502,Wilmersdorfer Straße 152A Charlottenburg 10585 Berlin
Tembo African Restaurant and Bar,52.51372,13.29087,Danckelmannstraße 20 Charlottenburg 14059 Berlin
Tex Mex,52.51068,13.30134,KaiserFriedrichStraße 34 Charlottenburg 10627 Berlin
Da Peppino,52.51162,13.29349,Wundtstraße 17 Charlottenburg 14059 Berlin
Dio's Musik-Café,52.51006,13.30467,Schillerstraße 44 Charlottenburg 10627 Berlin
Chapeau Brasserie,52.51095,13.29295,Kaiserdamm 6 Charlottenburg 14057 Berlin
Do Long,52.5133,13.30474,Wilmersdorfer Straße 29 Charlottenburg 10585 Berlin
Bärliner Tapasserie,52.51118,13.29134,Danckelmannstraße 30 Charlottenburg 14059 Berlin
Soffi,52.51163,13.29758,Schloßstraße 29 Charlottenburg 14059 Berlin
Restaurant Lateo,52.51064,13.29813,Windscheidstraße 42 Charlottenburg 10627 Berlin
Me Restaurant,52.51317,13.29242,Knobelsdorffstraße 27 Charlottenburg 14059 Berlin
Ming Jia,52.51201,13.29752,Schloßstraße 32 Charlottenburg 14059 Berlin
Wodessa Lounge,52.51042,13.29258,Kaiserdamm 110 Charlottenburg 14057 Berlin
Can Cafe,52.51163,13.29758,Schloßstraße 29 Charlottenburg 14059 Berlin
Dasomi,52.51317,13.29242,Knobelsdorffstraße 27 Charlottenburg 14059 Berlin
Berlin Bistro Pomelo Tree,52.51015,13.29769,Windscheidstraße 1 Charlottenburg 14057 Berlin
Alles Gut,52.51191,13.29424,Horstweg 7 Charlottenburg 14059 Berlin
Ess Haltestelle,52.51118,13.29134,Danckelmannstraße 30 Charlottenburg 14059 Berlin
Bey Simit Haus,52.51129,13.29832,Bismarckstraße 66 Charlottenburg 10627 Berlin
Jikos Burger,52.51191,13.29424,Horstweg 7 Charlottenburg 14059 Berlin
Asude,52.51133,13.29895,Bismarckstraße 63 Charlottenburg 10627 Berlin
Trattoria Fortuna,52.51101,13.29384,Kaiserdamm 4 Charlottenburg 14057 Berlin
Birgit's Pub,52.51202,13.29953,Fritschestraße 29 Charlottenburg 10585 Berlin
Am Nil Restaurant,52.51051,13.29411,Kaiserdamm 114 Charlottenburg 14057 Berlin
Rocco,52.51055,13.2949,Kaiserdamm 116 Charlottenburg 14057 Berlin
Marmotte,52.51253,13.29394,Wundtstraße 10 Charlottenburg 14059 Berlin
Hofbrau Munchen,52.51222,13.30486,Wilmersdorfer Straße 36 Charlottenburg 10585 Berlin
Gusto Giusto,52.51042,13.29258,Kaiserdamm 110 Charlottenburg 14057 Berlin
Esstaurant Mirko,52.51014,13.2983,Windscheidstraße 40 Charlottenburg 10627 Berlin
Trattoria Toscana,52.51416,13.29739,Schloßstraße 45 Charlottenburg 14059 Berlin
Pizza Napoli,52.51257,13.30482,Wilmersdorfer Straße 32 Charlottenburg 10585 Berlin
Al-Mundo,52.5119,13.29492,Horstweg 5 Charlottenburg 14059 Berlin
Restaurant & Weinbar Glügk,52.51101,13.29384,Kaiserdamm 4 Charlottenburg 14057 Berlin
Frühstück & Co,52.51184,13.30175,KaiserFriedrichStraße 77 Charlottenburg 10585 Berlin
Kien-du,52.51455,13.3013,KaiserFriedrichStraße 89 Charlottenburg 10585 Berlin
Café Kunst Genuß,52.51219,13.29993,Fritschestraße 68 Charlottenburg 10585 Berlin
Chennai,52.51312,13.29158,Knobelsdorffstraße 35 Charlottenburg 14059 Berlin
Croissanterie- Bistro und Eis,52.51133,13.29781,Bismarckstraße 67 Charlottenburg 10627 Berlin
Jojo,52.51191,13.29424,Horstweg 7 Charlottenburg 14059 Berlin
Kantine im Finanzamt Charlottenburg,52.51165,13.30365,Bismarckstraße 48 Charlottenburg 10627 Berlin
Dicker Wirt,52.51377,13.29123,Danckelmannstraße 43 Charlottenburg 14059 Berlin
Steinofen Pizza Pasta,52.51257,13.30482,Wilmersdorfer Straße 32 Charlottenburg 10585 Berlin
Pinoy Philippinische Spezialitaten,52.51484,13.29103,Danckelmannstraße 49 Charlottenburg 14059 Berlin
Com Sushi,52.51317,13.29242,Knobelsdorffstraße 27 Charlottenburg 14059 Berlin
Trattoria la Bella Sicilia,52.51307,13.29083,Knobelsdorffstraße 37 Charlottenburg 14059 Berlin
Da Antonio,52.51145,13.30067,Bismarckstraße 60 Charlottenburg 10627 Berlin
Trattoria Nardino,52.51305,13.30438,Spielhagenstraße 2 Charlottenburg 10585 Berlin
Van May,52.51218,13.29749,Schloßstraße 33 Charlottenburg 14059 Berlin
Chu Ky,52.51554,13.29161,Seelingstraße 34 Charlottenburg 14059 Berlin
Manhattan Burger,52.51304,13.29734,Schloßstraße 39 Charlottenburg 14059 Berlin
Prema,52.51255,13.29461,Wundtstraße 9 Charlottenburg 14059 Berlin
La Strada,52.51079,13.2985,Bismarckstraße 69 Charlottenburg 10627 Berlin
Cafe Morgenlicht,52.51581,13.29593,Schloßstraße 13 Charlottenburg 14059 Berlin
Clara Vere,52.51303,13.30416,Spielhagenstraße 3 Charlottenburg 10585 Berlin
Figaro Wine & Food,52.51218,13.29749,Schloßstraße 33 Charlottenburg 14059 Berlin
Zur Mieze Katzenmusik Cafe,52.51598,13.30485,Wilmersdorfer Straße 158 Charlottenburg 10585 Berlin
Falafel,52.51257,13.30482,Wilmersdorfer Straße 32 Charlottenburg 10585 Berlin
Castello,52.51163,13.29758,Schloßstraße 29 Charlottenburg 14059 Berlin
Röstwerk Kaffeerösterei,52.51556,13.29199,Seelingstraße 32 Charlottenburg 14059 Berlin
Sushi & Vietnam Kitchen,52.5133,13.30474,Wilmersdorfer Straße 29 Charlottenburg 10585 Berlin
Thuy Tien Sushi Bar,52.51769,13.29098,Klausenerplatz 14 Charlottenburg 14059 Berlin
Restaurant Kriti,52.51333,13.29081,Knobelsdorffstraße 38 Charlottenburg 14059 Berlin
Laisla Cafe&Restaurant,52.51458,13.30502,Wilmersdorfer Straße 152A Charlottenburg 10585 Berlin
Asia-Sushi Time,52.51769,13.29098,Klausenerplatz 14 Charlottenburg 14059 Berlin
Berliner Eismanufaktur,52.51551,13.29116,Seelingstraße 38 Charlottenburg 14059 Berlin
Salumeria Tommaso,52.51596,13.30448,Wilmersdorfer Straße 15 Charlottenburg 10585 Berlin
Dittmanns Drogerie,52.40302,13.58579,Kablower Weg 87 Bohnsdorf 12526 Berlin
Griechische Spezialitäten,52.39568,13.57372,Waltersdorfer Straße 38 Bohnsdorf 12526 Berlin
Duo Restaurant,52.45096,13.34087,Steglitzer Damm 29 Steglitz 12169 Berlin
Mamma Rosa,52.45039,13.34214,Steglitzer Damm 40 Steglitz 12169 Berlin
Restaurant Zagreb,52.45001,13.34533,Steglitzer Damm 54 Steglitz 12169 Berlin
Magna Coffee Store,52.45085,13.34179,Steglitzer Damm 33 Steglitz 12169 Berlin
Chandi Restaurant,52.44785,13.34024,Albrechtstraße 52 Steglitz 12167 Berlin
Groschen-Keller,52.46221,13.33897,Bismarckstraße 7 Steglitz 12157 Berlin
Ristoro Padre Pio,52.45901,13.34272,Bergstraße 62 Steglitz 12169 Berlin
Krasselt's Imbiss,52.4507,13.33958,Steglitzer Damm 22 Steglitz 12169 Berlin
China Restaurant Sichuan,52.45224,13.3339,Albrechtstraße 92 Steglitz 12167 Berlin
Ottmar Bonner & Petra Hilse,52.46221,13.33897,Bismarckstraße 7 Steglitz 12157 Berlin
Kebap House,52.45083,13.33849,Steglitzer Damm 14 Steglitz 12169 Berlin
Emona,52.45887,13.33976,Bergstraße 70 Steglitz 12169 Berlin
Parthenon,52.45145,13.33583,Steglitzer Damm 1 Steglitz 12169 Berlin
Restaurant Kadena,52.45887,13.33976,Bergstraße 70 Steglitz 12169 Berlin
Big Drei China Restaurant,52.44766,13.34138,Albrechtstraße 74 Steglitz 12167 Berlin
Unser Kebap,52.44714,13.34162,Albrechtstraße 55 Steglitz 12167 Berlin
Café Burda’S,52.4493,13.33865,Albrechtstraße 80 Steglitz 12167 Berlin
Eiscafe & Bubble Tea Bar Kunterbunt,52.45138,13.33648,Steglitzer Damm 5 Steglitz 12169 Berlin
Restaurant am Rosengarten,52.448885,13.338594,Albrechtstraße 47 Steglitz 12167 Berlin
Buon Café S,52.46276,13.33478,Poschingerstraße 34 Steglitz 12157 Berlin
Chopsticks,52.45668,13.33881,Bismarckstraße 16F Steglitz 12169 Berlin
Eiscafe Lido,52.46293,13.33875,Sachsenwaldstraße 8 Steglitz 12157 Berlin
Canova Berlin,52.463,13.34444,Rubensstraße 124 Schöneberg 12157 Berlin
Merci Backshop,52.46276,13.33478,Poschingerstraße 34 Steglitz 12157 Berlin
Eis Hennig,52.45098,13.33913,Steglitzer Damm Steglitz 12169 Berlin
Piadina Mia,52.44722,13.34225,Albrechtstraße 70 Steglitz 12167 Berlin
Xochimilco,52.45113,13.33944,Steglitzer Damm 19 Steglitz 12169 Berlin
Spalato,52.4598,13.33974,Bismarckstraße 64 Steglitz 12169 Berlin
Gemüse Kebab Eat&Go,52.46208,13.33875,Lauenburger Platz 1 Steglitz 12157 Berlin
Restaurant Tiamo,52.44661,13.34342,Albrechtstraße 69 Steglitz 12167 Berlin
Elias Gyrosland,52.45145,13.33863,Bismarckstraße 45 Steglitz 12169 Berlin
Tonys Pizzeria & Ristorante,52.44722,13.34225,Albrechtstraße 70 Steglitz 12167 Berlin
Dalmata,52.44785,13.34024,Albrechtstraße 52 Steglitz 12167 Berlin
Zaka Sushi,52.45304,13.33827,Bismarckstraße 32 Steglitz 12169 Berlin
Simon's Kneipe,52.44619,13.34452,Borstellstraße 48 Steglitz 12167 Berlin
Mare E Monti,52.46335,13.33878,Bismarckstraße 3 Steglitz 12157 Berlin
